{
"type": "FeatureCollection",
"crs": { "type": "name", "properties": { "name": "urn:ogc:def:crs:OGC:1.3:CRS84" } },
"features": [
{ "type": "Feature", "properties": { "id": "adr_voie_lieu.adrfontaineornem_latest.98", "nom": null, "adresse": "44 Rue Jeanne Hachette, Lyon 3e Arrondissement", "commune": "Lyon 3e Arrondissement", "insee": "69383", "address": { "postalCode": "69003", "streetAddress": "44 Rue Jeanne Hachette", "addressCountry": "FR", "addressLocality": "Lyon 3e Arrondissement" }, "source": "Open Street Map", "gid": 98 }, "geometry": { "type": "Point", "coordinates": [ 45.7534, 4.8629 ] } },
{ "type": "Feature", "properties": { "id": "adr_voie_lieu.adrfontaineornem_latest.37", "nom": null, "adresse": "44 Rue Jeanne Hachette, Lyon 3e Arrondissement", "commune": "Lyon 3e Arrondissement", "insee": "69383", "address": { "postalCode": "69003", "streetAddress": "44 Rue Jeanne Hachette", "addressCountry": "FR", "addressLocality": "Lyon 3e Arrondissement" }, "source": "Open Street Map", "gid": 37 }, "geometry": { "type": "Point", "coordinates": [ 45.7533, 4.8629 ] } },
{ "type": "Feature", "properties": { "id": "adr_voie_lieu.adrfontaineornem_latest.7", "nom": null, "adresse": "Place Jean Moulin, Fontaines-Saint-Martin", "commune": "Fontaines-Saint-Martin", "insee": "69087", "address": { "postalCode": "69270", "streetAddress": "Place Jean Moulin", "addressCountry": "FR", "addressLocality": "Fontaines-Saint-Martin" }, "source": "Open Street Map", "gid": 7 }, "geometry": { "type": "Point", "coordinates": [ 45.8443, 4.8548 ] } },
{ "type": "Feature", "properties": { "id": "adr_voie_lieu.adrfontaineornem_latest.113", "nom": null, "adresse": "1 Place Louis Braille, Caluire-et-Cuire", "commune": "Caluire-et-Cuire", "insee": "69034", "address": { "postalCode": "69300", "streetAddress": "1 Place Louis Braille", "addressCountry": "FR", "addressLocality": "Caluire-et-Cuire" }, "source": "Open Street Map", "gid": 113 }, "geometry": { "type": "Point", "coordinates": [ 45.7941, 4.8508 ] } },
{ "type": "Feature", "properties": { "id": "adr_voie_lieu.adrfontaineornem_latest.2", "nom": "Le Buisson Ardent", "adresse": "Rue Moncey, Lyon 3e Arrondissement", "commune": "Lyon 3e Arrondissement", "insee": "69383", "address": { "postalCode": "69003", "streetAddress": "Rue Moncey", "addressCountry": "FR", "addressLocality": "Lyon 3e Arrondissement" }, "source": "Open Street Map", "gid": 2 }, "geometry": { "type": "Point", "coordinates": [ 45.7598, 4.8481 ] } },
{ "type": "Feature", "properties": { "id": "adr_voie_lieu.adrfontaineornem_latest.64", "nom": null, "adresse": "44 Rue Jeanne Hachette, Lyon 3e Arrondissement", "commune": "Lyon 3e Arrondissement", "insee": "69383", "address": { "postalCode": "69003", "streetAddress": "44 Rue Jeanne Hachette", "addressCountry": "FR", "addressLocality": "Lyon 3e Arrondissement" }, "source": "Open Street Map", "gid": 64 }, "geometry": { "type": "Point", "coordinates": [ 45.7533, 4.8628 ] } },
{ "type": "Feature", "properties": { "id": "adr_voie_lieu.adrfontaineornem_latest.5", "nom": null, "adresse": "44 Rue Jeanne Hachette, Lyon 3e Arrondissement", "commune": "Lyon 3e Arrondissement", "insee": "69383", "address": { "postalCode": "69003", "streetAddress": "44 Rue Jeanne Hachette", "addressCountry": "FR", "addressLocality": "Lyon 3e Arrondissement" }, "source": "Open Street Map", "gid": 5 }, "geometry": { "type": "Point", "coordinates": [ 45.7534, 4.8628 ] } },
{ "type": "Feature", "properties": { "id": "adr_voie_lieu.adrfontaineornem_latest.67", "nom": "Fontaine de la Place Ampère", "adresse": "2 Place Ampère, Lyon 2e Arrondissement", "commune": "Lyon 2e Arrondissement", "insee": "69382", "address": { "postalCode": "69002", "streetAddress": "2 Place Ampère", "addressCountry": "FR", "addressLocality": "Lyon 2e Arrondissement" }, "source": "Open Street Map", "gid": 67 }, "geometry": { "type": "Point", "coordinates": [ 45.7532, 4.8288 ] } },
{ "type": "Feature", "properties": { "id": "adr_voie_lieu.adrfontaineornem_latest.15", "nom": "Ici", "adresse": "Allée du Gué, Vaulx-en-Velin", "commune": "Vaulx-en-Velin", "insee": "69256", "address": { "postalCode": "69120", "streetAddress": "Allée du Gué", "addressCountry": "FR", "addressLocality": "Vaulx-en-Velin" }, "source": "Open Street Map", "gid": 15 }, "geometry": { "type": "Point", "coordinates": [ 45.8054, 4.9341 ] } },
{ "type": "Feature", "properties": { "id": "adr_voie_lieu.adrfontaineornem_latest.118", "nom": null, "adresse": "Place de l'Ecole, Lyon 7e Arrondissement", "commune": "Lyon 7e Arrondissement", "insee": "69387", "address": { "postalCode": "69007", "streetAddress": "Place de l'Ecole", "addressCountry": "FR", "addressLocality": "Lyon 7e Arrondissement" }, "source": "Open Street Map", "gid": 118 }, "geometry": { "type": "Point", "coordinates": [ 45.7298, 4.8278 ] } },
{ "type": "Feature", "properties": { "id": "adr_voie_lieu.adrfontaineornem_latest.12", "nom": null, "adresse": "Place de la Commanderie, Lyon 5e Arrondissement", "commune": "Lyon 5e Arrondissement", "insee": "69385", "address": { "postalCode": "69005", "streetAddress": "Place de la Commanderie", "addressCountry": "FR", "addressLocality": "Lyon 5e Arrondissement" }, "source": "Open Street Map", "gid": 12 }, "geometry": { "type": "Point", "coordinates": [ 45.7575, 4.8254 ] } },
{ "type": "Feature", "properties": { "id": "adr_voie_lieu.adrfontaineornem_latest.11", "nom": null, "adresse": "12 Place de Verdun, Genay", "commune": "Genay", "insee": "69278", "address": { "postalCode": "69730", "streetAddress": "12 Place de Verdun", "addressCountry": "FR", "addressLocality": "Genay" }, "source": "Open Street Map", "gid": 11 }, "geometry": { "type": "Point", "coordinates": [ 45.8978, 4.8416 ] } },
{ "type": "Feature", "properties": { "id": "adr_voie_lieu.adrfontaineornem_latest.65", "nom": null, "adresse": "22 Rue de la République, Rillieux-la-Pape", "commune": "Rillieux-la-Pape", "insee": "69286", "address": { "postalCode": "69140", "streetAddress": "22 Rue de la République", "addressCountry": "FR", "addressLocality": "Rillieux-la-Pape" }, "source": "Open Street Map", "gid": 65 }, "geometry": { "type": "Point", "coordinates": [ 45.8241, 4.8991 ] } },
{ "type": "Feature", "properties": { "id": "adr_voie_lieu.adrfontaineornem_latest.21", "nom": null, "adresse": "30 Rue Pierre Delore, Lyon 8e Arrondissement", "commune": "Lyon 8e Arrondissement", "insee": "69388", "address": { "postalCode": "69008", "streetAddress": "30 Rue Pierre Delore", "addressCountry": "FR", "addressLocality": "Lyon 8e Arrondissement" }, "source": "Open Street Map", "gid": 21 }, "geometry": { "type": "Point", "coordinates": [ 45.7377, 4.8544 ] } },
{ "type": "Feature", "properties": { "id": "adr_voie_lieu.adrfontaineornem_latest.59", "nom": null, "adresse": "24bis Place Bellecour, Lyon 2e Arrondissement", "commune": "Lyon 2e Arrondissement", "insee": "69382", "address": { "postalCode": "69002", "streetAddress": "24bis Place Bellecour", "addressCountry": "FR", "addressLocality": "Lyon 2e Arrondissement" }, "source": "Open Street Map", "gid": 59 }, "geometry": { "type": "Point", "coordinates": [ 45.7569, 4.8323 ] } },
{ "type": "Feature", "properties": { "id": "adr_voie_lieu.adrfontaineornem_latest.86", "nom": null, "adresse": "2 Rue Victor Hugo, Lyon 2e Arrondissement", "commune": "Lyon 2e Arrondissement", "insee": "69382", "address": { "postalCode": "69002", "streetAddress": "2 Rue Victor Hugo", "addressCountry": "FR", "addressLocality": "Lyon 2e Arrondissement" }, "source": "Open Street Map", "gid": 86 }, "geometry": { "type": "Point", "coordinates": [ 45.7571, 4.8314 ] } },
{ "type": "Feature", "properties": { "id": "adr_voie_lieu.adrfontaineornem_latest.4", "nom": null, "adresse": "26 Place Bellecour, Lyon 2e Arrondissement", "commune": "Lyon 2e Arrondissement", "insee": "69382", "address": { "postalCode": "69002", "streetAddress": "26 Place Bellecour", "addressCountry": "FR", "addressLocality": "Lyon 2e Arrondissement" }, "source": "Open Street Map", "gid": 4 }, "geometry": { "type": "Point", "coordinates": [ 45.7572, 4.831 ] } },
{ "type": "Feature", "properties": { "id": "adr_voie_lieu.adrfontaineornem_latest.85", "nom": null, "adresse": "26 Rue de la République, Saint-Romain-au-Mont-d'Or", "commune": "Saint-Romain-au-Mont-d'Or", "insee": "69233", "address": { "postalCode": "69270", "streetAddress": "26 Rue de la République", "addressCountry": "FR", "addressLocality": "Saint-Romain-au-Mont-d'Or" }, "source": "Open Street Map", "gid": 85 }, "geometry": { "type": "Point", "coordinates": [ 45.8374, 4.8233 ] } },
{ "type": "Feature", "properties": { "id": "adr_voie_lieu.adrfontaineornem_latest.107", "nom": null, "adresse": "8 Place Général Leclerc, La Mulatière", "commune": "La Mulatière", "insee": "69142", "address": { "postalCode": "69350", "streetAddress": "8 Place Général Leclerc", "addressCountry": "FR", "addressLocality": "La Mulatière" }, "source": "Open Street Map", "gid": 107 }, "geometry": { "type": "Point", "coordinates": [ 45.7267, 4.8159 ] } },
{ "type": "Feature", "properties": { "id": "adr_voie_lieu.adrfontaineornem_latest.101", "nom": null, "adresse": "Place des Terreaux, Lyon 1er Arrondissement", "commune": "Lyon 1er Arrondissement", "insee": "69381", "address": { "postalCode": "69001", "streetAddress": "Place des Terreaux", "addressCountry": "FR", "addressLocality": "Lyon 1er Arrondissement" }, "source": "Open Street Map", "gid": 101 }, "geometry": { "type": "Point", "coordinates": [ 45.7675, 4.8339 ] } },
{ "type": "Feature", "properties": { "id": "adr_voie_lieu.adrfontaineornem_latest.70", "nom": null, "adresse": "Place d'Alsace Lorraine, Saint-Genis-Laval", "commune": "Saint-Genis-Laval", "insee": "69204", "address": { "postalCode": "69230", "streetAddress": "Place d'Alsace Lorraine", "addressCountry": "FR", "addressLocality": "Saint-Genis-Laval" }, "source": "Open Street Map", "gid": 70 }, "geometry": { "type": "Point", "coordinates": [ 45.6961, 4.7952 ] } },
{ "type": "Feature", "properties": { "id": "adr_voie_lieu.adrfontaineornem_latest.41", "nom": "Fontaine Saint-Jean de Lyon", "adresse": "8 Place Saint Jean, Lyon 5e Arrondissement", "commune": "Lyon 5e Arrondissement", "insee": "69385", "address": { "postalCode": "69005", "streetAddress": "8 Place Saint Jean", "addressCountry": "FR", "addressLocality": "Lyon 5e Arrondissement" }, "source": "Open Street Map", "gid": 41 }, "geometry": { "type": "Point", "coordinates": [ 45.761, 4.8265 ] } },
{ "type": "Feature", "properties": { "id": "adr_voie_lieu.adrfontaineornem_latest.57", "nom": null, "adresse": "Place de la Fontaine, Curis-au-Mont-d'Or", "commune": "Curis-au-Mont-d'Or", "insee": "69071", "address": { "postalCode": "69250", "streetAddress": "Place de la Fontaine", "addressCountry": "FR", "addressLocality": "Curis-au-Mont-d'Or" }, "source": "Open Street Map", "gid": 57 }, "geometry": { "type": "Point", "coordinates": [ 45.8698, 4.8198 ] } },
{ "type": "Feature", "properties": { "id": "adr_voie_lieu.adrfontaineornem_latest.94", "nom": null, "adresse": "1bis Rue de l'Egalité, Saint-Priest", "commune": "Saint-Priest", "insee": "69290", "address": { "postalCode": "69800", "streetAddress": "1bis Rue de l'Egalité", "addressCountry": "FR", "addressLocality": "Saint-Priest" }, "source": "Open Street Map", "gid": 94 }, "geometry": { "type": "Point", "coordinates": [ 45.6967, 4.9445 ] } },
{ "type": "Feature", "properties": { "id": "adr_voie_lieu.adrfontaineornem_latest.95", "nom": null, "adresse": "Square de Verdun, Charbonnières-les-Bains", "commune": "Charbonnières-les-Bains", "insee": "69044", "address": { "postalCode": "69260", "streetAddress": "Square de Verdun", "addressCountry": "FR", "addressLocality": "Charbonnières-les-Bains" }, "source": "Open Street Map", "gid": 95 }, "geometry": { "type": "Point", "coordinates": [ 45.7824, 4.736 ] } },
{ "type": "Feature", "properties": { "id": "adr_voie_lieu.adrfontaineornem_latest.115", "nom": null, "adresse": "Esplanade François Renaud, Lyon 5e Arrondissement", "commune": "Lyon 5e Arrondissement", "insee": "69385", "address": { "postalCode": "69005", "streetAddress": "Esplanade François Renaud", "addressCountry": "FR", "addressLocality": "Lyon 5e Arrondissement" }, "source": "Open Street Map", "gid": 115 }, "geometry": { "type": "Point", "coordinates": [ 45.7616, 4.829 ] } },
{ "type": "Feature", "properties": { "id": "adr_voie_lieu.adrfontaineornem_latest.110", "nom": null, "adresse": "Rue des Actionnaires, Lyon 4e Arrondissement", "commune": "Lyon 4e Arrondissement", "insee": "69384", "address": { "postalCode": "69004", "streetAddress": "Rue des Actionnaires", "addressCountry": "FR", "addressLocality": "Lyon 4e Arrondissement" }, "source": "Open Street Map", "gid": 110 }, "geometry": { "type": "Point", "coordinates": [ 45.7792, 4.8402 ] } },
{ "type": "Feature", "properties": { "id": "adr_voie_lieu.adrfontaineornem_latest.3", "nom": null, "adresse": "67 Rue de Pierrefrite, Villeurbanne", "commune": "Villeurbanne", "insee": "69266", "address": { "postalCode": "69100", "streetAddress": "67 Rue de Pierrefrite", "addressCountry": "FR", "addressLocality": "Villeurbanne" }, "source": "Open Street Map", "gid": 3 }, "geometry": { "type": "Point", "coordinates": [ 45.7665, 4.9123 ] } },
{ "type": "Feature", "properties": { "id": "adr_voie_lieu.adrfontaineornem_latest.68", "nom": null, "adresse": "8 Rue de Trion, Lyon 5e Arrondissement", "commune": "Lyon 5e Arrondissement", "insee": "69385", "address": { "postalCode": "69005", "streetAddress": "8 Rue de Trion", "addressCountry": "FR", "addressLocality": "Lyon 5e Arrondissement" }, "source": "Open Street Map", "gid": 68 }, "geometry": { "type": "Point", "coordinates": [ 45.7561, 4.8185 ] } },
{ "type": "Feature", "properties": { "id": "adr_voie_lieu.adrfontaineornem_latest.123", "nom": null, "adresse": "25 Place des Terreaux, Lyon 1er Arrondissement", "commune": "Lyon 1er Arrondissement", "insee": "69381", "address": { "postalCode": "69001", "streetAddress": "25 Place des Terreaux", "addressCountry": "FR", "addressLocality": "Lyon 1er Arrondissement" }, "source": "Open Street Map", "gid": 123 }, "geometry": { "type": "Point", "coordinates": [ 45.7675, 4.834 ] } },
{ "type": "Feature", "properties": { "id": "adr_voie_lieu.adrfontaineornem_latest.74", "nom": null, "adresse": "Place des Terreaux, Lyon 1er Arrondissement", "commune": "Lyon 1er Arrondissement", "insee": "69381", "address": { "postalCode": "69001", "streetAddress": "Place des Terreaux", "addressCountry": "FR", "addressLocality": "Lyon 1er Arrondissement" }, "source": "Open Street Map", "gid": 74 }, "geometry": { "type": "Point", "coordinates": [ 45.7675, 4.8337 ] } },
{ "type": "Feature", "properties": { "id": "adr_voie_lieu.adrfontaineornem_latest.19", "nom": null, "adresse": "Place des Terreaux, Lyon 1er Arrondissement", "commune": "Lyon 1er Arrondissement", "insee": "69381", "address": { "postalCode": "69001", "streetAddress": "Place des Terreaux", "addressCountry": "FR", "addressLocality": "Lyon 1er Arrondissement" }, "source": "Open Street Map", "gid": 19 }, "geometry": { "type": "Point", "coordinates": [ 45.7675, 4.8333 ] } },
{ "type": "Feature", "properties": { "id": "adr_voie_lieu.adrfontaineornem_latest.56", "nom": null, "adresse": "17 Place des Terreaux, Lyon 1er Arrondissement", "commune": "Lyon 1er Arrondissement", "insee": "69381", "address": { "postalCode": "69001", "streetAddress": "17 Place des Terreaux", "addressCountry": "FR", "addressLocality": "Lyon 1er Arrondissement" }, "source": "Open Street Map", "gid": 56 }, "geometry": { "type": "Point", "coordinates": [ 45.7674, 4.8332 ] } },
{ "type": "Feature", "properties": { "id": "adr_voie_lieu.adrfontaineornem_latest.32", "nom": null, "adresse": "12 Place des Terreaux, Lyon 1er Arrondissement", "commune": "Lyon 1er Arrondissement", "insee": "69381", "address": { "postalCode": "69001", "streetAddress": "12 Place des Terreaux", "addressCountry": "FR", "addressLocality": "Lyon 1er Arrondissement" }, "source": "Open Street Map", "gid": 32 }, "geometry": { "type": "Point", "coordinates": [ 45.7674, 4.833 ] } },
{ "type": "Feature", "properties": { "id": "adr_voie_lieu.adrfontaineornem_latest.14", "nom": null, "adresse": "11 Place Antonin Poncet, Lyon 2e Arrondissement", "commune": "Lyon 2e Arrondissement", "insee": "69382", "address": { "postalCode": "69002", "streetAddress": "11 Place Antonin Poncet", "addressCountry": "FR", "addressLocality": "Lyon 2e Arrondissement" }, "source": "Open Street Map", "gid": 14 }, "geometry": { "type": "Point", "coordinates": [ 45.7561, 4.8357 ] } },
{ "type": "Feature", "properties": { "id": "adr_voie_lieu.adrfontaineornem_latest.26", "nom": null, "adresse": "11 Place Antonin Poncet, Lyon 2e Arrondissement", "commune": "Lyon 2e Arrondissement", "insee": "69382", "address": { "postalCode": "69002", "streetAddress": "11 Place Antonin Poncet", "addressCountry": "FR", "addressLocality": "Lyon 2e Arrondissement" }, "source": "Open Street Map", "gid": 26 }, "geometry": { "type": "Point", "coordinates": [ 45.7561, 4.8357 ] } },
{ "type": "Feature", "properties": { "id": "adr_voie_lieu.adrfontaineornem_latest.36", "nom": null, "adresse": "11 Place Antonin Poncet, Lyon 2e Arrondissement", "commune": "Lyon 2e Arrondissement", "insee": "69382", "address": { "postalCode": "69002", "streetAddress": "11 Place Antonin Poncet", "addressCountry": "FR", "addressLocality": "Lyon 2e Arrondissement" }, "source": "Open Street Map", "gid": 36 }, "geometry": { "type": "Point", "coordinates": [ 45.7561, 4.8357 ] } },
{ "type": "Feature", "properties": { "id": "adr_voie_lieu.adrfontaineornem_latest.8", "nom": null, "adresse": "11 Place Antonin Poncet, Lyon 2e Arrondissement", "commune": "Lyon 2e Arrondissement", "insee": "69382", "address": { "postalCode": "69002", "streetAddress": "11 Place Antonin Poncet", "addressCountry": "FR", "addressLocality": "Lyon 2e Arrondissement" }, "source": "Open Street Map", "gid": 8 }, "geometry": { "type": "Point", "coordinates": [ 45.7561, 4.8356 ] } },
{ "type": "Feature", "properties": { "id": "adr_voie_lieu.adrfontaineornem_latest.51", "nom": null, "adresse": "11 Place Antonin Poncet, Lyon 2e Arrondissement", "commune": "Lyon 2e Arrondissement", "insee": "69382", "address": { "postalCode": "69002", "streetAddress": "11 Place Antonin Poncet", "addressCountry": "FR", "addressLocality": "Lyon 2e Arrondissement" }, "source": "Open Street Map", "gid": 51 }, "geometry": { "type": "Point", "coordinates": [ 45.7561, 4.8357 ] } },
{ "type": "Feature", "properties": { "id": "adr_voie_lieu.adrfontaineornem_latest.20", "nom": null, "adresse": "11 Place Antonin Poncet, Lyon 2e Arrondissement", "commune": "Lyon 2e Arrondissement", "insee": "69382", "address": { "postalCode": "69002", "streetAddress": "11 Place Antonin Poncet", "addressCountry": "FR", "addressLocality": "Lyon 2e Arrondissement" }, "source": "Open Street Map", "gid": 20 }, "geometry": { "type": "Point", "coordinates": [ 45.7561, 4.8357 ] } },
{ "type": "Feature", "properties": { "id": "adr_voie_lieu.adrfontaineornem_latest.1", "nom": null, "adresse": "11 Place Antonin Poncet, Lyon 2e Arrondissement", "commune": "Lyon 2e Arrondissement", "insee": "69382", "address": { "postalCode": "69002", "streetAddress": "11 Place Antonin Poncet", "addressCountry": "FR", "addressLocality": "Lyon 2e Arrondissement" }, "source": "Open Street Map", "gid": 1 }, "geometry": { "type": "Point", "coordinates": [ 45.756, 4.8356 ] } },
{ "type": "Feature", "properties": { "id": "adr_voie_lieu.adrfontaineornem_latest.103", "nom": null, "adresse": "11 Place Antonin Poncet, Lyon 2e Arrondissement", "commune": "Lyon 2e Arrondissement", "insee": "69382", "address": { "postalCode": "69002", "streetAddress": "11 Place Antonin Poncet", "addressCountry": "FR", "addressLocality": "Lyon 2e Arrondissement" }, "source": "Open Street Map", "gid": 103 }, "geometry": { "type": "Point", "coordinates": [ 45.756, 4.8357 ] } },
{ "type": "Feature", "properties": { "id": "adr_voie_lieu.adrfontaineornem_latest.69", "nom": null, "adresse": "11 Place Antonin Poncet, Lyon 2e Arrondissement", "commune": "Lyon 2e Arrondissement", "insee": "69382", "address": { "postalCode": "69002", "streetAddress": "11 Place Antonin Poncet", "addressCountry": "FR", "addressLocality": "Lyon 2e Arrondissement" }, "source": "Open Street Map", "gid": 69 }, "geometry": { "type": "Point", "coordinates": [ 45.756, 4.8357 ] } },
{ "type": "Feature", "properties": { "id": "adr_voie_lieu.adrfontaineornem_latest.105", "nom": null, "adresse": "19 Rue Pierre Delore, Lyon 8e Arrondissement", "commune": "Lyon 8e Arrondissement", "insee": "69388", "address": { "postalCode": "69008", "streetAddress": "19 Rue Pierre Delore", "addressCountry": "FR", "addressLocality": "Lyon 8e Arrondissement" }, "source": "Open Street Map", "gid": 105 }, "geometry": { "type": "Point", "coordinates": [ 45.7366, 4.8564 ] } },
{ "type": "Feature", "properties": { "id": "adr_voie_lieu.adrfontaineornem_latest.90", "nom": null, "adresse": "Place Alphonse Stengelin, Écully", "commune": "Écully", "insee": "69081", "address": { "postalCode": "69130", "streetAddress": "Place Alphonse Stengelin", "addressCountry": "FR", "addressLocality": "Écully" }, "source": "Open Street Map", "gid": 90 }, "geometry": { "type": "Point", "coordinates": [ 45.775, 4.7806 ] } },
{ "type": "Feature", "properties": { "id": "adr_voie_lieu.adrfontaineornem_latest.48", "nom": null, "adresse": "2b Place Gilbert Boissier, Vaulx-en-Velin", "commune": "Vaulx-en-Velin", "insee": "69256", "address": { "postalCode": "69120", "streetAddress": "2b Place Gilbert Boissier", "addressCountry": "FR", "addressLocality": "Vaulx-en-Velin" }, "source": "Open Street Map", "gid": 48 }, "geometry": { "type": "Point", "coordinates": [ 45.7861, 4.9269 ] } },
{ "type": "Feature", "properties": { "id": "adr_voie_lieu.adrfontaineornem_latest.62", "nom": null, "adresse": "11 Place Antonin Poncet, Lyon 2e Arrondissement", "commune": "Lyon 2e Arrondissement", "insee": "69382", "address": { "postalCode": "69002", "streetAddress": "11 Place Antonin Poncet", "addressCountry": "FR", "addressLocality": "Lyon 2e Arrondissement" }, "source": "Open Street Map", "gid": 62 }, "geometry": { "type": "Point", "coordinates": [ 45.756, 4.8356 ] } },
{ "type": "Feature", "properties": { "id": "adr_voie_lieu.adrfontaineornem_latest.75", "nom": null, "adresse": "11 Place Antonin Poncet, Lyon 2e Arrondissement", "commune": "Lyon 2e Arrondissement", "insee": "69382", "address": { "postalCode": "69002", "streetAddress": "11 Place Antonin Poncet", "addressCountry": "FR", "addressLocality": "Lyon 2e Arrondissement" }, "source": "Open Street Map", "gid": 75 }, "geometry": { "type": "Point", "coordinates": [ 45.756, 4.8356 ] } },
{ "type": "Feature", "properties": { "id": "adr_voie_lieu.adrfontaineornem_latest.31", "nom": null, "adresse": "11 Place Antonin Poncet, Lyon 2e Arrondissement", "commune": "Lyon 2e Arrondissement", "insee": "69382", "address": { "postalCode": "69002", "streetAddress": "11 Place Antonin Poncet", "addressCountry": "FR", "addressLocality": "Lyon 2e Arrondissement" }, "source": "Open Street Map", "gid": 31 }, "geometry": { "type": "Point", "coordinates": [ 45.756, 4.8356 ] } },
{ "type": "Feature", "properties": { "id": "adr_voie_lieu.adrfontaineornem_latest.109", "nom": null, "adresse": "11 Place Antonin Poncet, Lyon 2e Arrondissement", "commune": "Lyon 2e Arrondissement", "insee": "69382", "address": { "postalCode": "69002", "streetAddress": "11 Place Antonin Poncet", "addressCountry": "FR", "addressLocality": "Lyon 2e Arrondissement" }, "source": "Open Street Map", "gid": 109 }, "geometry": { "type": "Point", "coordinates": [ 45.756, 4.8356 ] } },
{ "type": "Feature", "properties": { "id": "adr_voie_lieu.adrfontaineornem_latest.33", "nom": null, "adresse": "11 Place Antonin Poncet, Lyon 2e Arrondissement", "commune": "Lyon 2e Arrondissement", "insee": "69382", "address": { "postalCode": "69002", "streetAddress": "11 Place Antonin Poncet", "addressCountry": "FR", "addressLocality": "Lyon 2e Arrondissement" }, "source": "Open Street Map", "gid": 33 }, "geometry": { "type": "Point", "coordinates": [ 45.756, 4.8356 ] } },
{ "type": "Feature", "properties": { "id": "adr_voie_lieu.adrfontaineornem_latest.83", "nom": null, "adresse": "11 Place Antonin Poncet, Lyon 2e Arrondissement", "commune": "Lyon 2e Arrondissement", "insee": "69382", "address": { "postalCode": "69002", "streetAddress": "11 Place Antonin Poncet", "addressCountry": "FR", "addressLocality": "Lyon 2e Arrondissement" }, "source": "Open Street Map", "gid": 83 }, "geometry": { "type": "Point", "coordinates": [ 45.756, 4.8356 ] } },
{ "type": "Feature", "properties": { "id": "adr_voie_lieu.adrfontaineornem_latest.129", "nom": null, "adresse": "Chemin du Rosaire, Lyon 5e Arrondissement", "commune": "Lyon 5e Arrondissement", "insee": "69385", "address": { "postalCode": "69005", "streetAddress": "Chemin du Rosaire", "addressCountry": "FR", "addressLocality": "Lyon 5e Arrondissement" }, "source": "Open Street Map", "gid": 129 }, "geometry": { "type": "Point", "coordinates": [ 45.7631, 4.8242 ] } },
{ "type": "Feature", "properties": { "id": "adr_voie_lieu.adrfontaineornem_latest.133", "nom": null, "adresse": "15 Rue Calas, Lyon 4e Arrondissement", "commune": "Lyon 4e Arrondissement", "insee": "69384", "address": { "postalCode": "69004", "streetAddress": "15 Rue Calas", "addressCountry": "FR", "addressLocality": "Lyon 4e Arrondissement" }, "source": "Open Street Map", "gid": 133 }, "geometry": { "type": "Point", "coordinates": [ 45.7775, 4.8308 ] } },
{ "type": "Feature", "properties": { "id": "adr_voie_lieu.adrfontaineornem_latest.131", "nom": null, "adresse": "11 Rue Calas, Lyon 4e Arrondissement", "commune": "Lyon 4e Arrondissement", "insee": "69384", "address": { "postalCode": "69004", "streetAddress": "11 Rue Calas", "addressCountry": "FR", "addressLocality": "Lyon 4e Arrondissement" }, "source": "Open Street Map", "gid": 131 }, "geometry": { "type": "Point", "coordinates": [ 45.7775, 4.8312 ] } },
{ "type": "Feature", "properties": { "id": "adr_voie_lieu.adrfontaineornem_latest.104", "nom": null, "adresse": "3 Rue Professeur Pierre Marion, Lyon 5e Arrondissement", "commune": "Lyon 5e Arrondissement", "insee": "69385", "address": { "postalCode": "69005", "streetAddress": "3 Rue Professeur Pierre Marion", "addressCountry": "FR", "addressLocality": "Lyon 5e Arrondissement" }, "source": "Open Street Map", "gid": 104 }, "geometry": { "type": "Point", "coordinates": [ 45.7585, 4.8214 ] } },
{ "type": "Feature", "properties": { "id": "adr_voie_lieu.adrfontaineornem_latest.47", "nom": null, "adresse": "2bis Montée du Garillan, Lyon 5e Arrondissement", "commune": "Lyon 5e Arrondissement", "insee": "69385", "address": { "postalCode": "69005", "streetAddress": "2bis Montée du Garillan", "addressCountry": "FR", "addressLocality": "Lyon 5e Arrondissement" }, "source": "Open Street Map", "gid": 47 }, "geometry": { "type": "Point", "coordinates": [ 45.764, 4.8269 ] } },
{ "type": "Feature", "properties": { "id": "adr_voie_lieu.adrfontaineornem_latest.50", "nom": null, "adresse": "3 Place Gailleton, Lyon 2e Arrondissement", "commune": "Lyon 2e Arrondissement", "insee": "69382", "address": { "postalCode": "69002", "streetAddress": "3 Place Gailleton", "addressCountry": "FR", "addressLocality": "Lyon 2e Arrondissement" }, "source": "Open Street Map", "gid": 50 }, "geometry": { "type": "Point", "coordinates": [ 45.7533, 4.8335 ] } },
{ "type": "Feature", "properties": { "id": "adr_voie_lieu.adrfontaineornem_latest.142", "nom": null, "adresse": "12 Place Benoit Crépu, Lyon 5e Arrondissement", "commune": "Lyon 5e Arrondissement", "insee": "69385", "address": { "postalCode": "69005", "streetAddress": "12 Place Benoit Crépu", "addressCountry": "FR", "addressLocality": "Lyon 5e Arrondissement" }, "source": "Open Street Map", "gid": 142 }, "geometry": { "type": "Point", "coordinates": [ 45.758, 4.8261 ] } },
{ "type": "Feature", "properties": { "id": "adr_voie_lieu.adrfontaineornem_latest.145", "nom": null, "adresse": "Place Benoit Crépu, Lyon 5e Arrondissement", "commune": "Lyon 5e Arrondissement", "insee": "69385", "address": { "postalCode": "69005", "streetAddress": "Place Benoit Crépu", "addressCountry": "FR", "addressLocality": "Lyon 5e Arrondissement" }, "source": "Open Street Map", "gid": 145 }, "geometry": { "type": "Point", "coordinates": [ 45.7584, 4.8265 ] } },
{ "type": "Feature", "properties": { "id": "adr_voie_lieu.adrfontaineornem_latest.18", "nom": null, "adresse": "42 Rue Jeanne Hachette, Lyon 3e Arrondissement", "commune": "Lyon 3e Arrondissement", "insee": "69383", "address": { "postalCode": "69003", "streetAddress": "42 Rue Jeanne Hachette", "addressCountry": "FR", "addressLocality": "Lyon 3e Arrondissement" }, "source": "Open Street Map", "gid": 18 }, "geometry": { "type": "Point", "coordinates": [ 45.7533, 4.8629 ] } },
{ "type": "Feature", "properties": { "id": "adr_voie_lieu.adrfontaineornem_latest.16", "nom": null, "adresse": "42 Rue Jeanne Hachette, Lyon 3e Arrondissement", "commune": "Lyon 3e Arrondissement", "insee": "69383", "address": { "postalCode": "69003", "streetAddress": "42 Rue Jeanne Hachette", "addressCountry": "FR", "addressLocality": "Lyon 3e Arrondissement" }, "source": "Open Street Map", "gid": 16 }, "geometry": { "type": "Point", "coordinates": [ 45.7533, 4.8629 ] } },
{ "type": "Feature", "properties": { "id": "adr_voie_lieu.adrfontaineornem_latest.78", "nom": null, "adresse": "44 Rue Jeanne Hachette, Lyon 3e Arrondissement", "commune": "Lyon 3e Arrondissement", "insee": "69383", "address": { "postalCode": "69003", "streetAddress": "44 Rue Jeanne Hachette", "addressCountry": "FR", "addressLocality": "Lyon 3e Arrondissement" }, "source": "Open Street Map", "gid": 78 }, "geometry": { "type": "Point", "coordinates": [ 45.7534, 4.8628 ] } },
{ "type": "Feature", "properties": { "id": "adr_voie_lieu.adrfontaineornem_latest.99", "nom": null, "adresse": "44 Rue Jeanne Hachette, Lyon 3e Arrondissement", "commune": "Lyon 3e Arrondissement", "insee": "69383", "address": { "postalCode": "69003", "streetAddress": "44 Rue Jeanne Hachette", "addressCountry": "FR", "addressLocality": "Lyon 3e Arrondissement" }, "source": "Open Street Map", "gid": 99 }, "geometry": { "type": "Point", "coordinates": [ 45.7534, 4.8629 ] } },
{ "type": "Feature", "properties": { "id": "adr_voie_lieu.adrfontaineornem_latest.53", "nom": null, "adresse": "44 Rue Président Edouard Herriot, Lyon 2e Arrondissement", "commune": "Lyon 2e Arrondissement", "insee": "69382", "address": { "postalCode": "69002", "streetAddress": "44 Rue Président Edouard Herriot", "addressCountry": "FR", "addressLocality": "Lyon 2e Arrondissement" }, "source": "Open Street Map", "gid": 53 }, "geometry": { "type": "Point", "coordinates": [ 45.7649, 4.8341 ] } },
{ "type": "Feature", "properties": { "id": "adr_voie_lieu.adrfontaineornem_latest.6", "nom": null, "adresse": "6 Place Bénédict Tessier, Lyon 5e Arrondissement", "commune": "Lyon 5e Arrondissement", "insee": "69385", "address": { "postalCode": "69005", "streetAddress": "6 Place Bénédict Tessier", "addressCountry": "FR", "addressLocality": "Lyon 5e Arrondissement" }, "source": "Open Street Map", "gid": 6 }, "geometry": { "type": "Point", "coordinates": [ 45.7561, 4.7973 ] } },
{ "type": "Feature", "properties": { "id": "adr_voie_lieu.adrfontaineornem_latest.119", "nom": null, "adresse": "2 Rue Parmentier, Saint-Priest", "commune": "Saint-Priest", "insee": "69290", "address": { "postalCode": "69800", "streetAddress": "2 Rue Parmentier", "addressCountry": "FR", "addressLocality": "Saint-Priest" }, "source": "Open Street Map", "gid": 119 }, "geometry": { "type": "Point", "coordinates": [ 45.6945, 4.9421 ] } },
{ "type": "Feature", "properties": { "id": "adr_voie_lieu.adrfontaineornem_latest.120", "nom": null, "adresse": "36 Rue François Rabelais, Vaulx-en-Velin", "commune": "Vaulx-en-Velin", "insee": "69256", "address": { "postalCode": "69120", "streetAddress": "36 Rue François Rabelais", "addressCountry": "FR", "addressLocality": "Vaulx-en-Velin" }, "source": "Open Street Map", "gid": 120 }, "geometry": { "type": "Point", "coordinates": [ 45.7773, 4.9171 ] } },
{ "type": "Feature", "properties": { "id": "adr_voie_lieu.adrfontaineornem_latest.97", "nom": null, "adresse": "25 Rue du Professeur Roux, Vénissieux", "commune": "Vénissieux", "insee": "69259", "address": { "postalCode": "69200", "streetAddress": "25 Rue du Professeur Roux", "addressCountry": "FR", "addressLocality": "Vénissieux" }, "source": "Open Street Map", "gid": 97 }, "geometry": { "type": "Point", "coordinates": [ 45.7283, 4.8576 ] } },
{ "type": "Feature", "properties": { "id": "adr_voie_lieu.adrfontaineornem_latest.72", "nom": null, "adresse": "290 Route de Vienne, Lyon 8e Arrondissement", "commune": "Lyon 8e Arrondissement", "insee": "69388", "address": { "postalCode": "69008", "streetAddress": "290 Route de Vienne", "addressCountry": "FR", "addressLocality": "Lyon 8e Arrondissement" }, "source": "Open Street Map", "gid": 72 }, "geometry": { "type": "Point", "coordinates": [ 45.7243, 4.8519 ] } },
{ "type": "Feature", "properties": { "id": "adr_voie_lieu.adrfontaineornem_latest.100", "nom": null, "adresse": "18 Avenue du Docteur Terver, Écully", "commune": "Écully", "insee": "69081", "address": { "postalCode": "69130", "streetAddress": "18 Avenue du Docteur Terver", "addressCountry": "FR", "addressLocality": "Écully" }, "source": "Open Street Map", "gid": 100 }, "geometry": { "type": "Point", "coordinates": [ 45.7727, 4.7772 ] } },
{ "type": "Feature", "properties": { "id": "adr_voie_lieu.adrfontaineornem_latest.23", "nom": null, "adresse": "Place François Bertras, Lyon 5e Arrondissement", "commune": "Lyon 5e Arrondissement", "insee": "69385", "address": { "postalCode": "69005", "streetAddress": "Place François Bertras", "addressCountry": "FR", "addressLocality": "Lyon 5e Arrondissement" }, "source": "Open Street Map", "gid": 23 }, "geometry": { "type": "Point", "coordinates": [ 45.7578, 4.8256 ] } },
{ "type": "Feature", "properties": { "id": "adr_voie_lieu.adrfontaineornem_latest.106", "nom": null, "adresse": "149 Rue Garibaldi, Lyon 3e Arrondissement", "commune": "Lyon 3e Arrondissement", "insee": "69383", "address": { "postalCode": "69003", "streetAddress": "149 Rue Garibaldi", "addressCountry": "FR", "addressLocality": "Lyon 3e Arrondissement" }, "source": "Open Street Map", "gid": 106 }, "geometry": { "type": "Point", "coordinates": [ 45.7613, 4.8523 ] } },
{ "type": "Feature", "properties": { "id": "adr_voie_lieu.adrfontaineornem_latest.40", "nom": null, "adresse": "82 Rue Gambetta, Saint-Priest", "commune": "Saint-Priest", "insee": "69290", "address": { "postalCode": "69800", "streetAddress": "82 Rue Gambetta", "addressCountry": "FR", "addressLocality": "Saint-Priest" }, "source": "Open Street Map", "gid": 40 }, "geometry": { "type": "Point", "coordinates": [ 45.7013, 4.9417 ] } },
{ "type": "Feature", "properties": { "id": "adr_voie_lieu.adrfontaineornem_latest.38", "nom": null, "adresse": "1 Place du Château, Rillieux-la-Pape", "commune": "Rillieux-la-Pape", "insee": "69286", "address": { "postalCode": "69140", "streetAddress": "1 Place du Château", "addressCountry": "FR", "addressLocality": "Rillieux-la-Pape" }, "source": "Open Street Map", "gid": 38 }, "geometry": { "type": "Point", "coordinates": [ 45.8251, 4.8947 ] } },
{ "type": "Feature", "properties": { "id": "adr_voie_lieu.adrfontaineornem_latest.42", "nom": null, "adresse": "24bis Place Bellecour, Lyon 2e Arrondissement", "commune": "Lyon 2e Arrondissement", "insee": "69382", "address": { "postalCode": "69002", "streetAddress": "24bis Place Bellecour", "addressCountry": "FR", "addressLocality": "Lyon 2e Arrondissement" }, "source": "Open Street Map", "gid": 42 }, "geometry": { "type": "Point", "coordinates": [ 45.7569, 4.8324 ] } },
{ "type": "Feature", "properties": { "id": "adr_voie_lieu.adrfontaineornem_latest.124", "nom": null, "adresse": "25 Place Bellecour, Lyon 2e Arrondissement", "commune": "Lyon 2e Arrondissement", "insee": "69382", "address": { "postalCode": "69002", "streetAddress": "25 Place Bellecour", "addressCountry": "FR", "addressLocality": "Lyon 2e Arrondissement" }, "source": "Open Street Map", "gid": 124 }, "geometry": { "type": "Point", "coordinates": [ 45.757, 4.8321 ] } },
{ "type": "Feature", "properties": { "id": "adr_voie_lieu.adrfontaineornem_latest.73", "nom": null, "adresse": "26 Place Bellecour, Lyon 2e Arrondissement", "commune": "Lyon 2e Arrondissement", "insee": "69382", "address": { "postalCode": "69002", "streetAddress": "26 Place Bellecour", "addressCountry": "FR", "addressLocality": "Lyon 2e Arrondissement" }, "source": "Open Street Map", "gid": 73 }, "geometry": { "type": "Point", "coordinates": [ 45.7572, 4.8312 ] } },
{ "type": "Feature", "properties": { "id": "adr_voie_lieu.adrfontaineornem_latest.22", "nom": "Lavoir Montée Bonafous", "adresse": "16 Montée Bonafous, Lyon 4e Arrondissement", "commune": "Lyon 4e Arrondissement", "insee": "69384", "address": { "postalCode": "69004", "streetAddress": "16 Montée Bonafous", "addressCountry": "FR", "addressLocality": "Lyon 4e Arrondissement" }, "source": "Open Street Map", "gid": 22 }, "geometry": { "type": "Point", "coordinates": [ 45.7752, 4.8382 ] } },
{ "type": "Feature", "properties": { "id": "adr_voie_lieu.adrfontaineornem_latest.121", "nom": null, "adresse": "1 Place de la Halle, La Tour-de-Salvagny", "commune": "La Tour-de-Salvagny", "insee": "69250", "address": { "postalCode": "69890", "streetAddress": "1 Place de la Halle", "addressCountry": "FR", "addressLocality": "La Tour-de-Salvagny" }, "source": "Open Street Map", "gid": 121 }, "geometry": { "type": "Point", "coordinates": [ 45.8149, 4.7167 ] } },
{ "type": "Feature", "properties": { "id": "adr_voie_lieu.adrfontaineornem_latest.55", "nom": null, "adresse": "2 Place Sathonay, Lyon 1er Arrondissement", "commune": "Lyon 1er Arrondissement", "insee": "69381", "address": { "postalCode": "69001", "streetAddress": "2 Place Sathonay", "addressCountry": "FR", "addressLocality": "Lyon 1er Arrondissement" }, "source": "Open Street Map", "gid": 55 }, "geometry": { "type": "Point", "coordinates": [ 45.7694, 4.8303 ] } },
{ "type": "Feature", "properties": { "id": "adr_voie_lieu.adrfontaineornem_latest.9", "nom": null, "adresse": "Rue de Savy, Lyon 1er Arrondissement", "commune": "Lyon 1er Arrondissement", "insee": "69381", "address": { "postalCode": "69001", "streetAddress": "Rue de Savy", "addressCountry": "FR", "addressLocality": "Lyon 1er Arrondissement" }, "source": "Open Street Map", "gid": 9 }, "geometry": { "type": "Point", "coordinates": [ 45.7694, 4.8305 ] } },
{ "type": "Feature", "properties": { "id": "adr_voie_lieu.adrfontaineornem_latest.108", "nom": null, "adresse": "20 Place des Terreaux, Lyon 1er Arrondissement", "commune": "Lyon 1er Arrondissement", "insee": "69381", "address": { "postalCode": "69001", "streetAddress": "20 Place des Terreaux", "addressCountry": "FR", "addressLocality": "Lyon 1er Arrondissement" }, "source": "Open Street Map", "gid": 108 }, "geometry": { "type": "Point", "coordinates": [ 45.7668, 4.8336 ] } },
{ "type": "Feature", "properties": { "id": "adr_voie_lieu.adrfontaineornem_latest.87", "nom": null, "adresse": "22 Avenue du Plateau, Lyon 9e Arrondissement", "commune": "Lyon 9e Arrondissement", "insee": "69389", "address": { "postalCode": "69009", "streetAddress": "22 Avenue du Plateau", "addressCountry": "FR", "addressLocality": "Lyon 9e Arrondissement" }, "source": "Open Street Map", "gid": 87 }, "geometry": { "type": "Point", "coordinates": [ 45.7838, 4.7949 ] } },
{ "type": "Feature", "properties": { "id": "adr_voie_lieu.adrfontaineornem_latest.77", "nom": null, "adresse": "1 Boulevard Anatole France, Lyon 6e Arrondissement", "commune": "Lyon 6e Arrondissement", "insee": "69386", "address": { "postalCode": "69006", "streetAddress": "1 Boulevard Anatole France", "addressCountry": "FR", "addressLocality": "Lyon 6e Arrondissement" }, "source": "Open Street Map", "gid": 77 }, "geometry": { "type": "Point", "coordinates": [ 45.7717, 4.8573 ] } },
{ "type": "Feature", "properties": { "id": "adr_voie_lieu.adrfontaineornem_latest.35", "nom": null, "adresse": "14 Rue Félix Mangini, Lyon 9e Arrondissement", "commune": "Lyon 9e Arrondissement", "insee": "69389", "address": { "postalCode": "69009", "streetAddress": "14 Rue Félix Mangini", "addressCountry": "FR", "addressLocality": "Lyon 9e Arrondissement" }, "source": "Open Street Map", "gid": 35 }, "geometry": { "type": "Point", "coordinates": [ 45.7904, 4.8168 ] } },
{ "type": "Feature", "properties": { "id": "adr_voie_lieu.adrfontaineornem_latest.96", "nom": null, "adresse": "Allée du Champ de Colle, Lyon 5e Arrondissement", "commune": "Lyon 5e Arrondissement", "insee": "69385", "address": { "postalCode": "69005", "streetAddress": "Allée du Champ de Colle", "addressCountry": "FR", "addressLocality": "Lyon 5e Arrondissement" }, "source": "Open Street Map", "gid": 96 }, "geometry": { "type": "Point", "coordinates": [ 45.7587, 4.8217 ] } },
{ "type": "Feature", "properties": { "id": "adr_voie_lieu.adrfontaineornem_latest.24", "nom": null, "adresse": "Esplanade François Renaud, Lyon 5e Arrondissement", "commune": "Lyon 5e Arrondissement", "insee": "69385", "address": { "postalCode": "69005", "streetAddress": "Esplanade François Renaud", "addressCountry": "FR", "addressLocality": "Lyon 5e Arrondissement" }, "source": "Open Street Map", "gid": 24 }, "geometry": { "type": "Point", "coordinates": [ 45.7617, 4.8291 ] } },
{ "type": "Feature", "properties": { "id": "adr_voie_lieu.adrfontaineornem_latest.93", "nom": "Fontaine du Taurobole", "adresse": "19 Rue des Macchabées, Lyon 5e Arrondissement", "commune": "Lyon 5e Arrondissement", "insee": "69385", "address": { "postalCode": "69005", "streetAddress": "19 Rue des Macchabées", "addressCountry": "FR", "addressLocality": "Lyon 5e Arrondissement" }, "source": "Open Street Map", "gid": 93 }, "geometry": { "type": "Point", "coordinates": [ 45.7558, 4.8166 ] } },
{ "type": "Feature", "properties": { "id": "adr_voie_lieu.adrfontaineornem_latest.102", "nom": null, "adresse": "2 Rue du Cimetière, Villeurbanne", "commune": "Villeurbanne", "insee": "69266", "address": { "postalCode": "69100", "streetAddress": "2 Rue du Cimetière", "addressCountry": "FR", "addressLocality": "Villeurbanne" }, "source": "Open Street Map", "gid": 102 }, "geometry": { "type": "Point", "coordinates": [ 45.7661, 4.9108 ] } },
{ "type": "Feature", "properties": { "id": "adr_voie_lieu.adrfontaineornem_latest.92", "nom": null, "adresse": "Chemin du Rosaire, Lyon 5e Arrondissement", "commune": "Lyon 5e Arrondissement", "insee": "69385", "address": { "postalCode": "69005", "streetAddress": "Chemin du Rosaire", "addressCountry": "FR", "addressLocality": "Lyon 5e Arrondissement" }, "source": "Open Street Map", "gid": 92 }, "geometry": { "type": "Point", "coordinates": [ 45.7626, 4.8233 ] } },
{ "type": "Feature", "properties": { "id": "adr_voie_lieu.adrfontaineornem_latest.25", "nom": null, "adresse": "262 Avenue Berthelot, Lyon 8e Arrondissement", "commune": "Lyon 8e Arrondissement", "insee": "69388", "address": { "postalCode": "69008", "streetAddress": "262 Avenue Berthelot", "addressCountry": "FR", "addressLocality": "Lyon 8e Arrondissement" }, "source": "Open Street Map", "gid": 25 }, "geometry": { "type": "Point", "coordinates": [ 45.7389, 4.8607 ] } },
{ "type": "Feature", "properties": { "id": "adr_voie_lieu.adrfontaineornem_latest.52", "nom": null, "adresse": "Place des Terreaux, Lyon 1er Arrondissement", "commune": "Lyon 1er Arrondissement", "insee": "69381", "address": { "postalCode": "69001", "streetAddress": "Place des Terreaux", "addressCountry": "FR", "addressLocality": "Lyon 1er Arrondissement" }, "source": "Open Street Map", "gid": 52 }, "geometry": { "type": "Point", "coordinates": [ 45.7675, 4.8338 ] } },
{ "type": "Feature", "properties": { "id": "adr_voie_lieu.adrfontaineornem_latest.76", "nom": null, "adresse": "2 Place des Terreaux, Lyon 1er Arrondissement", "commune": "Lyon 1er Arrondissement", "insee": "69381", "address": { "postalCode": "69001", "streetAddress": "2 Place des Terreaux", "addressCountry": "FR", "addressLocality": "Lyon 1er Arrondissement" }, "source": "Open Street Map", "gid": 76 }, "geometry": { "type": "Point", "coordinates": [ 45.7675, 4.8339 ] } },
{ "type": "Feature", "properties": { "id": "adr_voie_lieu.adrfontaineornem_latest.91", "nom": null, "adresse": "Place des Terreaux, Lyon 1er Arrondissement", "commune": "Lyon 1er Arrondissement", "insee": "69381", "address": { "postalCode": "69001", "streetAddress": "Place des Terreaux", "addressCountry": "FR", "addressLocality": "Lyon 1er Arrondissement" }, "source": "Open Street Map", "gid": 91 }, "geometry": { "type": "Point", "coordinates": [ 45.7675, 4.8337 ] } },
{ "type": "Feature", "properties": { "id": "adr_voie_lieu.adrfontaineornem_latest.60", "nom": null, "adresse": "13 Place Carnot, Lyon 2e Arrondissement", "commune": "Lyon 2e Arrondissement", "insee": "69382", "address": { "postalCode": "69002", "streetAddress": "13 Place Carnot", "addressCountry": "FR", "addressLocality": "Lyon 2e Arrondissement" }, "source": "Open Street Map", "gid": 60 }, "geometry": { "type": "Point", "coordinates": [ 45.7508, 4.8278 ] } },
{ "type": "Feature", "properties": { "id": "adr_voie_lieu.adrfontaineornem_latest.63", "nom": null, "adresse": "Place des Terreaux, Lyon 1er Arrondissement", "commune": "Lyon 1er Arrondissement", "insee": "69381", "address": { "postalCode": "69001", "streetAddress": "Place des Terreaux", "addressCountry": "FR", "addressLocality": "Lyon 1er Arrondissement" }, "source": "Open Street Map", "gid": 63 }, "geometry": { "type": "Point", "coordinates": [ 45.7675, 4.8336 ] } },
{ "type": "Feature", "properties": { "id": "adr_voie_lieu.adrfontaineornem_latest.122", "nom": null, "adresse": "Place des Terreaux, Lyon 1er Arrondissement", "commune": "Lyon 1er Arrondissement", "insee": "69381", "address": { "postalCode": "69001", "streetAddress": "Place des Terreaux", "addressCountry": "FR", "addressLocality": "Lyon 1er Arrondissement" }, "source": "Open Street Map", "gid": 122 }, "geometry": { "type": "Point", "coordinates": [ 45.7675, 4.8335 ] } },
{ "type": "Feature", "properties": { "id": "adr_voie_lieu.adrfontaineornem_latest.112", "nom": null, "adresse": "Place des Terreaux, Lyon 1er Arrondissement", "commune": "Lyon 1er Arrondissement", "insee": "69381", "address": { "postalCode": "69001", "streetAddress": "Place des Terreaux", "addressCountry": "FR", "addressLocality": "Lyon 1er Arrondissement" }, "source": "Open Street Map", "gid": 112 }, "geometry": { "type": "Point", "coordinates": [ 45.7675, 4.8334 ] } },
{ "type": "Feature", "properties": { "id": "adr_voie_lieu.adrfontaineornem_latest.84", "nom": null, "adresse": "19 Place des Terreaux, Lyon 1er Arrondissement", "commune": "Lyon 1er Arrondissement", "insee": "69381", "address": { "postalCode": "69001", "streetAddress": "19 Place des Terreaux", "addressCountry": "FR", "addressLocality": "Lyon 1er Arrondissement" }, "source": "Open Street Map", "gid": 84 }, "geometry": { "type": "Point", "coordinates": [ 45.7674, 4.8333 ] } },
{ "type": "Feature", "properties": { "id": "adr_voie_lieu.adrfontaineornem_latest.126", "nom": null, "adresse": "12 Place des Terreaux, Lyon 1er Arrondissement", "commune": "Lyon 1er Arrondissement", "insee": "69381", "address": { "postalCode": "69001", "streetAddress": "12 Place des Terreaux", "addressCountry": "FR", "addressLocality": "Lyon 1er Arrondissement" }, "source": "Open Street Map", "gid": 126 }, "geometry": { "type": "Point", "coordinates": [ 45.7674, 4.8331 ] } },
{ "type": "Feature", "properties": { "id": "adr_voie_lieu.adrfontaineornem_latest.58", "nom": null, "adresse": "12 Place des Terreaux, Lyon 1er Arrondissement", "commune": "Lyon 1er Arrondissement", "insee": "69381", "address": { "postalCode": "69001", "streetAddress": "12 Place des Terreaux", "addressCountry": "FR", "addressLocality": "Lyon 1er Arrondissement" }, "source": "Open Street Map", "gid": 58 }, "geometry": { "type": "Point", "coordinates": [ 45.7674, 4.833 ] } },
{ "type": "Feature", "properties": { "id": "adr_voie_lieu.adrfontaineornem_latest.114", "nom": null, "adresse": "11 Place Antonin Poncet, Lyon 2e Arrondissement", "commune": "Lyon 2e Arrondissement", "insee": "69382", "address": { "postalCode": "69002", "streetAddress": "11 Place Antonin Poncet", "addressCountry": "FR", "addressLocality": "Lyon 2e Arrondissement" }, "source": "Open Street Map", "gid": 114 }, "geometry": { "type": "Point", "coordinates": [ 45.7561, 4.8357 ] } },
{ "type": "Feature", "properties": { "id": "adr_voie_lieu.adrfontaineornem_latest.10", "nom": null, "adresse": "11 Place Antonin Poncet, Lyon 2e Arrondissement", "commune": "Lyon 2e Arrondissement", "insee": "69382", "address": { "postalCode": "69002", "streetAddress": "11 Place Antonin Poncet", "addressCountry": "FR", "addressLocality": "Lyon 2e Arrondissement" }, "source": "Open Street Map", "gid": 10 }, "geometry": { "type": "Point", "coordinates": [ 45.7561, 4.8357 ] } },
{ "type": "Feature", "properties": { "id": "adr_voie_lieu.adrfontaineornem_latest.39", "nom": null, "adresse": "11 Place Antonin Poncet, Lyon 2e Arrondissement", "commune": "Lyon 2e Arrondissement", "insee": "69382", "address": { "postalCode": "69002", "streetAddress": "11 Place Antonin Poncet", "addressCountry": "FR", "addressLocality": "Lyon 2e Arrondissement" }, "source": "Open Street Map", "gid": 39 }, "geometry": { "type": "Point", "coordinates": [ 45.7561, 4.8357 ] } },
{ "type": "Feature", "properties": { "id": "adr_voie_lieu.adrfontaineornem_latest.27", "nom": null, "adresse": "11 Place Antonin Poncet, Lyon 2e Arrondissement", "commune": "Lyon 2e Arrondissement", "insee": "69382", "address": { "postalCode": "69002", "streetAddress": "11 Place Antonin Poncet", "addressCountry": "FR", "addressLocality": "Lyon 2e Arrondissement" }, "source": "Open Street Map", "gid": 27 }, "geometry": { "type": "Point", "coordinates": [ 45.7561, 4.8357 ] } },
{ "type": "Feature", "properties": { "id": "adr_voie_lieu.adrfontaineornem_latest.45", "nom": null, "adresse": "11 Place Antonin Poncet, Lyon 2e Arrondissement", "commune": "Lyon 2e Arrondissement", "insee": "69382", "address": { "postalCode": "69002", "streetAddress": "11 Place Antonin Poncet", "addressCountry": "FR", "addressLocality": "Lyon 2e Arrondissement" }, "source": "Open Street Map", "gid": 45 }, "geometry": { "type": "Point", "coordinates": [ 45.7561, 4.8357 ] } },
{ "type": "Feature", "properties": { "id": "adr_voie_lieu.adrfontaineornem_latest.49", "nom": null, "adresse": "11 Place Antonin Poncet, Lyon 2e Arrondissement", "commune": "Lyon 2e Arrondissement", "insee": "69382", "address": { "postalCode": "69002", "streetAddress": "11 Place Antonin Poncet", "addressCountry": "FR", "addressLocality": "Lyon 2e Arrondissement" }, "source": "Open Street Map", "gid": 49 }, "geometry": { "type": "Point", "coordinates": [ 45.756, 4.8357 ] } },
{ "type": "Feature", "properties": { "id": "adr_voie_lieu.adrfontaineornem_latest.30", "nom": null, "adresse": "11 Place Antonin Poncet, Lyon 2e Arrondissement", "commune": "Lyon 2e Arrondissement", "insee": "69382", "address": { "postalCode": "69002", "streetAddress": "11 Place Antonin Poncet", "addressCountry": "FR", "addressLocality": "Lyon 2e Arrondissement" }, "source": "Open Street Map", "gid": 30 }, "geometry": { "type": "Point", "coordinates": [ 45.756, 4.8357 ] } },
{ "type": "Feature", "properties": { "id": "adr_voie_lieu.adrfontaineornem_latest.28", "nom": null, "adresse": "11 Place Antonin Poncet, Lyon 2e Arrondissement", "commune": "Lyon 2e Arrondissement", "insee": "69382", "address": { "postalCode": "69002", "streetAddress": "11 Place Antonin Poncet", "addressCountry": "FR", "addressLocality": "Lyon 2e Arrondissement" }, "source": "Open Street Map", "gid": 28 }, "geometry": { "type": "Point", "coordinates": [ 45.756, 4.8356 ] } },
{ "type": "Feature", "properties": { "id": "adr_voie_lieu.adrfontaineornem_latest.80", "nom": null, "adresse": "11 Place Antonin Poncet, Lyon 2e Arrondissement", "commune": "Lyon 2e Arrondissement", "insee": "69382", "address": { "postalCode": "69002", "streetAddress": "11 Place Antonin Poncet", "addressCountry": "FR", "addressLocality": "Lyon 2e Arrondissement" }, "source": "Open Street Map", "gid": 80 }, "geometry": { "type": "Point", "coordinates": [ 45.756, 4.8357 ] } },
{ "type": "Feature", "properties": { "id": "adr_voie_lieu.adrfontaineornem_latest.29", "nom": null, "adresse": "11 Place Antonin Poncet, Lyon 2e Arrondissement", "commune": "Lyon 2e Arrondissement", "insee": "69382", "address": { "postalCode": "69002", "streetAddress": "11 Place Antonin Poncet", "addressCountry": "FR", "addressLocality": "Lyon 2e Arrondissement" }, "source": "Open Street Map", "gid": 29 }, "geometry": { "type": "Point", "coordinates": [ 45.756, 4.8356 ] } },
{ "type": "Feature", "properties": { "id": "adr_voie_lieu.adrfontaineornem_latest.44", "nom": null, "adresse": "11 Place Antonin Poncet, Lyon 2e Arrondissement", "commune": "Lyon 2e Arrondissement", "insee": "69382", "address": { "postalCode": "69002", "streetAddress": "11 Place Antonin Poncet", "addressCountry": "FR", "addressLocality": "Lyon 2e Arrondissement" }, "source": "Open Street Map", "gid": 44 }, "geometry": { "type": "Point", "coordinates": [ 45.756, 4.8356 ] } },
{ "type": "Feature", "properties": { "id": "adr_voie_lieu.adrfontaineornem_latest.13", "nom": null, "adresse": "11 Place Antonin Poncet, Lyon 2e Arrondissement", "commune": "Lyon 2e Arrondissement", "insee": "69382", "address": { "postalCode": "69002", "streetAddress": "11 Place Antonin Poncet", "addressCountry": "FR", "addressLocality": "Lyon 2e Arrondissement" }, "source": "Open Street Map", "gid": 13 }, "geometry": { "type": "Point", "coordinates": [ 45.756, 4.8357 ] } },
{ "type": "Feature", "properties": { "id": "adr_voie_lieu.adrfontaineornem_latest.43", "nom": null, "adresse": "11 Place Antonin Poncet, Lyon 2e Arrondissement", "commune": "Lyon 2e Arrondissement", "insee": "69382", "address": { "postalCode": "69002", "streetAddress": "11 Place Antonin Poncet", "addressCountry": "FR", "addressLocality": "Lyon 2e Arrondissement" }, "source": "Open Street Map", "gid": 43 }, "geometry": { "type": "Point", "coordinates": [ 45.756, 4.8356 ] } },
{ "type": "Feature", "properties": { "id": "adr_voie_lieu.adrfontaineornem_latest.111", "nom": null, "adresse": "11 Place Antonin Poncet, Lyon 2e Arrondissement", "commune": "Lyon 2e Arrondissement", "insee": "69382", "address": { "postalCode": "69002", "streetAddress": "11 Place Antonin Poncet", "addressCountry": "FR", "addressLocality": "Lyon 2e Arrondissement" }, "source": "Open Street Map", "gid": 111 }, "geometry": { "type": "Point", "coordinates": [ 45.756, 4.8357 ] } },
{ "type": "Feature", "properties": { "id": "adr_voie_lieu.adrfontaineornem_latest.81", "nom": null, "adresse": "11 Place Antonin Poncet, Lyon 2e Arrondissement", "commune": "Lyon 2e Arrondissement", "insee": "69382", "address": { "postalCode": "69002", "streetAddress": "11 Place Antonin Poncet", "addressCountry": "FR", "addressLocality": "Lyon 2e Arrondissement" }, "source": "Open Street Map", "gid": 81 }, "geometry": { "type": "Point", "coordinates": [ 45.756, 4.8356 ] } },
{ "type": "Feature", "properties": { "id": "adr_voie_lieu.adrfontaineornem_latest.117", "nom": null, "adresse": "11 Place Antonin Poncet, Lyon 2e Arrondissement", "commune": "Lyon 2e Arrondissement", "insee": "69382", "address": { "postalCode": "69002", "streetAddress": "11 Place Antonin Poncet", "addressCountry": "FR", "addressLocality": "Lyon 2e Arrondissement" }, "source": "Open Street Map", "gid": 117 }, "geometry": { "type": "Point", "coordinates": [ 45.756, 4.8356 ] } },
{ "type": "Feature", "properties": { "id": "adr_voie_lieu.adrfontaineornem_latest.82", "nom": null, "adresse": "11 Place Antonin Poncet, Lyon 2e Arrondissement", "commune": "Lyon 2e Arrondissement", "insee": "69382", "address": { "postalCode": "69002", "streetAddress": "11 Place Antonin Poncet", "addressCountry": "FR", "addressLocality": "Lyon 2e Arrondissement" }, "source": "Open Street Map", "gid": 82 }, "geometry": { "type": "Point", "coordinates": [ 45.756, 4.8356 ] } },
{ "type": "Feature", "properties": { "id": "adr_voie_lieu.adrfontaineornem_latest.61", "nom": null, "adresse": "11 Place Antonin Poncet, Lyon 2e Arrondissement", "commune": "Lyon 2e Arrondissement", "insee": "69382", "address": { "postalCode": "69002", "streetAddress": "11 Place Antonin Poncet", "addressCountry": "FR", "addressLocality": "Lyon 2e Arrondissement" }, "source": "Open Street Map", "gid": 61 }, "geometry": { "type": "Point", "coordinates": [ 45.756, 4.8356 ] } },
{ "type": "Feature", "properties": { "id": "adr_voie_lieu.adrfontaineornem_latest.127", "nom": null, "adresse": "Rue du 11 Novembre, Grigny", "commune": "Grigny", "insee": "69096", "address": { "postalCode": "69520", "streetAddress": "Rue du 11 Novembre", "addressCountry": "FR", "addressLocality": "Grigny" }, "source": "Open Street Map", "gid": 127 }, "geometry": { "type": "Point", "coordinates": [ 45.6082, 4.791 ] } },
{ "type": "Feature", "properties": { "id": "adr_voie_lieu.adrfontaineornem_latest.128", "nom": null, "adresse": "191 Rue Emile Zola, Décines-Charpieu", "commune": "Décines-Charpieu", "insee": "69275", "address": { "postalCode": "69150", "streetAddress": "191 Rue Emile Zola", "addressCountry": "FR", "addressLocality": "Décines-Charpieu" }, "source": "Open Street Map", "gid": 128 }, "geometry": { "type": "Point", "coordinates": [ 45.764, 4.9629 ] } },
{ "type": "Feature", "properties": { "id": "adr_voie_lieu.adrfontaineornem_latest.132", "nom": null, "adresse": "15 Rue Calas, Lyon 4e Arrondissement", "commune": "Lyon 4e Arrondissement", "insee": "69384", "address": { "postalCode": "69004", "streetAddress": "15 Rue Calas", "addressCountry": "FR", "addressLocality": "Lyon 4e Arrondissement" }, "source": "Open Street Map", "gid": 132 }, "geometry": { "type": "Point", "coordinates": [ 45.7775, 4.8307 ] } },
{ "type": "Feature", "properties": { "id": "adr_voie_lieu.adrfontaineornem_latest.130", "nom": null, "adresse": "13 Rue Calas, Lyon 4e Arrondissement", "commune": "Lyon 4e Arrondissement", "insee": "69384", "address": { "postalCode": "69004", "streetAddress": "13 Rue Calas", "addressCountry": "FR", "addressLocality": "Lyon 4e Arrondissement" }, "source": "Open Street Map", "gid": 130 }, "geometry": { "type": "Point", "coordinates": [ 45.7775, 4.8311 ] } },
{ "type": "Feature", "properties": { "id": "adr_voie_lieu.adrfontaineornem_latest.134", "nom": null, "adresse": "54 Rue Fleury, Oullins", "commune": "Oullins", "insee": "69149", "address": { "postalCode": "69600", "streetAddress": "54 Rue Fleury", "addressCountry": "FR", "addressLocality": "Oullins" }, "source": "Open Street Map", "gid": 134 }, "geometry": { "type": "Point", "coordinates": [ 45.7137, 4.8114 ] } },
{ "type": "Feature", "properties": { "id": "adr_voie_lieu.adrfontaineornem_latest.136", "nom": null, "adresse": "22 Rue Valentin Haüy, Villeurbanne", "commune": "Villeurbanne", "insee": "69266", "address": { "postalCode": "69100", "streetAddress": "22 Rue Valentin Haüy", "addressCountry": "FR", "addressLocality": "Villeurbanne" }, "source": "Open Street Map", "gid": 136 }, "geometry": { "type": "Point", "coordinates": [ 45.759, 4.8837 ] } },
{ "type": "Feature", "properties": { "id": "adr_voie_lieu.adrfontaineornem_latest.143", "nom": null, "adresse": "12bis Place Benoit Crépu, Lyon 5e Arrondissement", "commune": "Lyon 5e Arrondissement", "insee": "69385", "address": { "postalCode": "69005", "streetAddress": "12bis Place Benoit Crépu", "addressCountry": "FR", "addressLocality": "Lyon 5e Arrondissement" }, "source": "Open Street Map", "gid": 143 }, "geometry": { "type": "Point", "coordinates": [ 45.7579, 4.8261 ] } },
{ "type": "Feature", "properties": { "id": "adr_voie_lieu.adrfontaineornem_latest.141", "nom": null, "adresse": "8 Place Benoit Crépu, Lyon 5e Arrondissement", "commune": "Lyon 5e Arrondissement", "insee": "69385", "address": { "postalCode": "69005", "streetAddress": "8 Place Benoit Crépu", "addressCountry": "FR", "addressLocality": "Lyon 5e Arrondissement" }, "source": "Open Street Map", "gid": 141 }, "geometry": { "type": "Point", "coordinates": [ 45.7581, 4.8262 ] } },
{ "type": "Feature", "properties": { "id": "adr_voie_lieu.adrfontaineornem_latest.140", "nom": null, "adresse": "8 Place Benoit Crépu, Lyon 5e Arrondissement", "commune": "Lyon 5e Arrondissement", "insee": "69385", "address": { "postalCode": "69005", "streetAddress": "8 Place Benoit Crépu", "addressCountry": "FR", "addressLocality": "Lyon 5e Arrondissement" }, "source": "Open Street Map", "gid": 140 }, "geometry": { "type": "Point", "coordinates": [ 45.7582, 4.8263 ] } },
{ "type": "Feature", "properties": { "id": "adr_voie_lieu.adrfontaineornem_latest.144", "nom": null, "adresse": "Place Benoit Crépu, Lyon 5e Arrondissement", "commune": "Lyon 5e Arrondissement", "insee": "69385", "address": { "postalCode": "69005", "streetAddress": "Place Benoit Crépu", "addressCountry": "FR", "addressLocality": "Lyon 5e Arrondissement" }, "source": "Open Street Map", "gid": 144 }, "geometry": { "type": "Point", "coordinates": [ 45.7583, 4.8264 ] } },
{ "type": "Feature", "properties": { "id": "adr_voie_lieu.adrfontaineornem_latest.138", "nom": null, "adresse": "4 Place Benoit Crépu, Lyon 5e Arrondissement", "commune": "Lyon 5e Arrondissement", "insee": "69385", "address": { "postalCode": "69005", "streetAddress": "4 Place Benoit Crépu", "addressCountry": "FR", "addressLocality": "Lyon 5e Arrondissement" }, "source": "Open Street Map", "gid": 138 }, "geometry": { "type": "Point", "coordinates": [ 45.7585, 4.8266 ] } },
{ "type": "Feature", "properties": { "id": "adr_voie_lieu.adrfontaineornem_latest.139", "nom": null, "adresse": "4 Place Benoit Crépu, Lyon 5e Arrondissement", "commune": "Lyon 5e Arrondissement", "insee": "69385", "address": { "postalCode": "69005", "streetAddress": "4 Place Benoit Crépu", "addressCountry": "FR", "addressLocality": "Lyon 5e Arrondissement" }, "source": "Open Street Map", "gid": 139 }, "geometry": { "type": "Point", "coordinates": [ 45.7586, 4.8267 ] } },
{ "type": "Feature", "properties": { "id": "adr_voie_lieu.adrfontaineornem_latest.137", "nom": null, "adresse": "2 Place Benoit Crépu, Lyon 5e Arrondissement", "commune": "Lyon 5e Arrondissement", "insee": "69385", "address": { "postalCode": "69005", "streetAddress": "2 Place Benoit Crépu", "addressCountry": "FR", "addressLocality": "Lyon 5e Arrondissement" }, "source": "Open Street Map", "gid": 137 }, "geometry": { "type": "Point", "coordinates": [ 45.7586, 4.8268 ] } },
{ "type": "Feature", "properties": { "id": "adr_voie_lieu.adrfontaineornem_latest.146", "nom": null, "adresse": "Square Dreieich, Villeurbanne", "commune": "Villeurbanne", "insee": "69266", "address": { "postalCode": "69100", "streetAddress": "Square Dreieich", "addressCountry": "FR", "addressLocality": "Villeurbanne" }, "source": "Open Street Map", "gid": 146 }, "geometry": { "type": "Point", "coordinates": [ 45.7656, 4.899 ] } },
{ "type": "Feature", "properties": { "id": "adr_voie_lieu.adrfontaineornem_latest.147", "nom": "Fontaine de Camille Roy", "adresse": "35 Cours Général Giraud, Lyon 1er Arrondissement", "commune": "Lyon 1er Arrondissement", "insee": "69381", "address": { "postalCode": "69001", "streetAddress": "35 Cours Général Giraud", "addressCountry": "FR", "addressLocality": "Lyon 1er Arrondissement" }, "source": "Open Street Map", "gid": 147 }, "geometry": { "type": "Point", "coordinates": [ 45.7689, 4.8207 ] } },
{ "type": "Feature", "properties": { "id": "adr_voie_lieu.adrfontaineornem_latest.66", "nom": null, "adresse": "1bis Place des Minimes, Lyon 5e Arrondissement", "commune": "Lyon 5e Arrondissement", "insee": "69385", "address": { "postalCode": "69005", "streetAddress": "1bis Place des Minimes", "addressCountry": "FR", "addressLocality": "Lyon 5e Arrondissement" }, "source": "Open Street Map", "gid": 66 }, "geometry": { "type": "Point", "coordinates": [ 45.7583, 4.8213 ] } },
{ "type": "Feature", "properties": { "id": "adr_voie_lieu.adrfontaineornem_latest.148", "nom": "Place Maréchal Juin", "adresse": "Place Maréchal Juin, Rillieux-la-Pape", "commune": "Rillieux-la-Pape", "insee": "69286", "address": { "postalCode": "69140", "streetAddress": "Place Maréchal Juin", "addressCountry": "FR", "addressLocality": "Rillieux-la-Pape" }, "source": "Open Street Map", "gid": 148 }, "geometry": { "type": "Point", "coordinates": [ 45.8183, 4.9047 ] } },
{ "type": "Feature", "properties": { "id": "adr_voie_lieu.adrfontaineornem_latest.46", "nom": "Fontaine du Verbe-Incarné", "adresse": "4 Rue de la Favorite, Lyon 5e Arrondissement", "commune": "Lyon 5e Arrondissement", "insee": "69385", "address": { "postalCode": "69005", "streetAddress": "4 Rue de la Favorite", "addressCountry": "FR", "addressLocality": "Lyon 5e Arrondissement" }, "source": "Open Street Map", "gid": 46 }, "geometry": { "type": "Point", "coordinates": [ 45.7581, 4.8129 ] } },
{ "type": "Feature", "properties": { "id": "adr_voie_lieu.adrfontaineornem_latest.79", "nom": null, "adresse": "Place Carnot, Lyon 2e Arrondissement", "commune": "Lyon 2e Arrondissement", "insee": "69382", "address": { "postalCode": "69002", "streetAddress": "Place Carnot", "addressCountry": "FR", "addressLocality": "Lyon 2e Arrondissement" }, "source": "Open Street Map", "gid": 79 }, "geometry": { "type": "Point", "coordinates": [ 45.7505, 4.8276 ] } },
{ "type": "Feature", "properties": { "id": "adr_voie_lieu.adrfontaineornem_latest.89", "nom": null, "adresse": "Place Carnot, Lyon 2e Arrondissement", "commune": "Lyon 2e Arrondissement", "insee": "69382", "address": { "postalCode": "69002", "streetAddress": "Place Carnot", "addressCountry": "FR", "addressLocality": "Lyon 2e Arrondissement" }, "source": "Open Street Map", "gid": 89 }, "geometry": { "type": "Point", "coordinates": [ 45.7502, 4.8273 ] } },
{ "type": "Feature", "properties": { "id": "adr_voie_lieu.adrfontaineornem_latest.17", "nom": "Jet d'eau des Droits de l'Homme", "adresse": "Route d'Heyrieux, Saint-Priest", "commune": "Saint-Priest", "insee": "69290", "address": { "postalCode": "69800", "streetAddress": "Route d'Heyrieux", "addressCountry": "FR", "addressLocality": "Saint-Priest" }, "source": "Open Street Map", "gid": 17 }, "geometry": { "type": "Point", "coordinates": [ 45.6856, 4.947 ] } },
{ "type": "Feature", "properties": { "id": "adr_voie_lieu.adrfontaineornem_latest.34", "nom": null, "adresse": "164 Place de la Mairie, Charly", "commune": "Charly", "insee": "69046", "address": { "postalCode": "69390", "streetAddress": "164 Place de la Mairie", "addressCountry": "FR", "addressLocality": "Charly" }, "source": "Open Street Map", "gid": 34 }, "geometry": { "type": "Point", "coordinates": [ 45.6494, 4.7951 ] } },
{ "type": "Feature", "properties": { "id": "adr_voie_lieu.adrfontaineornem_latest.154", "nom": "Le Soleil", "adresse": "15 Place Louis Pradel, Lyon 1er Arrondissement", "commune": "Lyon 1er Arrondissement", "insee": "69381", "address": { "postalCode": "69001", "streetAddress": "15 Place Louis Pradel", "addressCountry": "FR", "addressLocality": "Lyon 1er Arrondissement" }, "source": "Open Street Map", "gid": 154 }, "geometry": { "type": "Point", "coordinates": [ 45.7683, 4.8361 ] } },
{ "type": "Feature", "properties": { "id": "adr_voie_lieu.adrfontaineornem_latest.155", "nom": "Le bassin central de la place", "adresse": "Place de la République, Lyon 2e Arrondissement", "commune": "Lyon 2e Arrondissement", "insee": "69382", "address": { "postalCode": "69002", "streetAddress": "Place de la République", "addressCountry": "FR", "addressLocality": "Lyon 2e Arrondissement" }, "source": "Open Street Map", "gid": 155 }, "geometry": { "type": "Point", "coordinates": [ 45.7605, 4.8356 ] } },
{ "type": "Feature", "properties": { "id": "adr_voie_lieu.adrfontaineornem_latest.156", "nom": null, "adresse": "Rue de l'Eglise, Lyon 3e Arrondissement", "commune": "Lyon 3e Arrondissement", "insee": "69383", "address": { "postalCode": "69003", "streetAddress": "Rue de l'Eglise", "addressCountry": "FR", "addressLocality": "Lyon 3e Arrondissement" }, "source": "Open Street Map", "gid": 156 }, "geometry": { "type": "Point", "coordinates": [ 45.7535, 4.8915 ] } },
{ "type": "Feature", "properties": { "id": "adr_voie_lieu.adrfontaineornem_latest.157", "nom": null, "adresse": "Place Saint Irénée, Lyon 5e Arrondissement", "commune": "Lyon 5e Arrondissement", "insee": "69385", "address": { "postalCode": "69005", "streetAddress": "Place Saint Irénée", "addressCountry": "FR", "addressLocality": "Lyon 5e Arrondissement" }, "source": "Open Street Map", "gid": 157 }, "geometry": { "type": "Point", "coordinates": [ 45.7551, 4.8128 ] } },
{ "type": "Feature", "properties": { "id": "adr_voie_lieu.adrfontaineornem_latest.158", "nom": null, "adresse": "3 Avenue Roberto Rossellini, Villeurbanne", "commune": "Villeurbanne", "insee": "69266", "address": { "postalCode": "69100", "streetAddress": "3 Avenue Roberto Rossellini", "addressCountry": "FR", "addressLocality": "Villeurbanne" }, "source": "Open Street Map", "gid": 158 }, "geometry": { "type": "Point", "coordinates": [ 45.7791, 4.8627 ] } },
{ "type": "Feature", "properties": { "id": "adr_voie_lieu.adrfontaineornem_latest.160", "nom": "Fontaine Bartholdi", "adresse": "6 Place des Terreaux, Lyon 1er Arrondissement", "commune": "Lyon 1er Arrondissement", "insee": "69381", "address": { "postalCode": "69001", "streetAddress": "6 Place des Terreaux", "addressCountry": "FR", "addressLocality": "Lyon 1er Arrondissement" }, "source": "Open Street Map", "gid": 160 }, "geometry": { "type": "Point", "coordinates": [ 45.7676, 4.8335 ] } },
{ "type": "Feature", "properties": { "id": "adr_voie_lieu.adrfontaineornem_latest.161", "nom": null, "adresse": "115 Allée du 4 Avril 1908, Sathonay-Camp", "commune": "Sathonay-Camp", "insee": "69292", "address": { "postalCode": "69580", "streetAddress": "115 Allée du 4 Avril 1908", "addressCountry": "FR", "addressLocality": "Sathonay-Camp" }, "source": "Open Street Map", "gid": 161 }, "geometry": { "type": "Point", "coordinates": [ 45.8244, 4.8708 ] } },
{ "type": "Feature", "properties": { "id": "adr_voie_lieu.adrfontaineornem_latest.162", "nom": null, "adresse": "11bis Place Maréchal Lyautey, Lyon 6e Arrondissement", "commune": "Lyon 6e Arrondissement", "insee": "69386", "address": { "postalCode": "69006", "streetAddress": "11bis Place Maréchal Lyautey", "addressCountry": "FR", "addressLocality": "Lyon 6e Arrondissement" }, "source": "Open Street Map", "gid": 162 }, "geometry": { "type": "Point", "coordinates": [ 45.7685, 4.8421 ] } },
{ "type": "Feature", "properties": { "id": "adr_voie_lieu.adrfontaineornem_latest.163", "nom": null, "adresse": "2 Rue Jean Jaurès, Meyzieu", "commune": "Meyzieu", "insee": "69282", "address": { "postalCode": "69330", "streetAddress": "2 Rue Jean Jaurès", "addressCountry": "FR", "addressLocality": "Meyzieu" }, "source": "Open Street Map", "gid": 163 }, "geometry": { "type": "Point", "coordinates": [ 45.7663, 5.0063 ] } },
{ "type": "Feature", "properties": { "id": "adr_voie_lieu.adrfontaineornem_latest.164", "nom": null, "adresse": "Avenue de Gadagne, Saint-Genis-Laval", "commune": "Saint-Genis-Laval", "insee": "69204", "address": { "postalCode": "69230", "streetAddress": "Avenue de Gadagne", "addressCountry": "FR", "addressLocality": "Saint-Genis-Laval" }, "source": "Open Street Map", "gid": 164 }, "geometry": { "type": "Point", "coordinates": [ 45.6918, 4.7869 ] } },
{ "type": "Feature", "properties": { "id": "adr_voie_lieu.adrfontaineornem_latest.165", "nom": null, "adresse": "20 Place des Terreaux, Lyon 1er Arrondissement", "commune": "Lyon 1er Arrondissement", "insee": "69381", "address": { "postalCode": "69001", "streetAddress": "20 Place des Terreaux", "addressCountry": "FR", "addressLocality": "Lyon 1er Arrondissement" }, "source": "Open Street Map", "gid": 165 }, "geometry": { "type": "Point", "coordinates": [ 45.7668, 4.8336 ] } },
{ "type": "Feature", "properties": { "id": "adr_voie_lieu.adrfontaineornem_latest.166", "nom": "Bassin", "adresse": "75 Rue Maryse Bastié, Lyon 8e Arrondissement", "commune": "Lyon 8e Arrondissement", "insee": "69388", "address": { "postalCode": "69008", "streetAddress": "75 Rue Maryse Bastié", "addressCountry": "FR", "addressLocality": "Lyon 8e Arrondissement" }, "source": "Open Street Map", "gid": 166 }, "geometry": { "type": "Point", "coordinates": [ 45.7338, 4.8736 ] } },
{ "type": "Feature", "properties": { "id": "adr_voie_lieu.adrfontaineornem_latest.167", "nom": null, "adresse": "3 Rue Deshay, Sainte-Foy-lès-Lyon", "commune": "Sainte-Foy-lès-Lyon", "insee": "69202", "address": { "postalCode": "69110", "streetAddress": "3 Rue Deshay", "addressCountry": "FR", "addressLocality": "Sainte-Foy-lès-Lyon" }, "source": "Open Street Map", "gid": 167 }, "geometry": { "type": "Point", "coordinates": [ 45.7371, 4.8005 ] } },
{ "type": "Feature", "properties": { "id": "adr_voie_lieu.adrfontaineornem_latest.168", "nom": null, "adresse": "54bis Avenue Maréchal Foch, Saint-Genis-Laval", "commune": "Saint-Genis-Laval", "insee": "69204", "address": { "postalCode": "69230", "streetAddress": "54bis Avenue Maréchal Foch", "addressCountry": "FR", "addressLocality": "Saint-Genis-Laval" }, "source": "Open Street Map", "gid": 168 }, "geometry": { "type": "Point", "coordinates": [ 45.6917, 4.7872 ] } },
{ "type": "Feature", "properties": { "id": "adr_voie_lieu.adrfontaineornem_latest.169", "nom": null, "adresse": "Rue de l'Antiquaille, Lyon 5e Arrondissement", "commune": "Lyon 5e Arrondissement", "insee": "69385", "address": { "postalCode": "69005", "streetAddress": "Rue de l'Antiquaille", "addressCountry": "FR", "addressLocality": "Lyon 5e Arrondissement" }, "source": "Open Street Map", "gid": 169 }, "geometry": { "type": "Point", "coordinates": [ 45.7596, 4.8209 ] } },
{ "type": "Feature", "properties": { "id": "adr_voie_lieu.adrfontaineornem_latest.170", "nom": null, "adresse": "Place Meissonnier, Lyon 1er Arrondissement", "commune": "Lyon 1er Arrondissement", "insee": "69381", "address": { "postalCode": "69001", "streetAddress": "Place Meissonnier", "addressCountry": "FR", "addressLocality": "Lyon 1er Arrondissement" }, "source": "Open Street Map", "gid": 170 }, "geometry": { "type": "Point", "coordinates": [ 45.7662, 4.8328 ] } },
{ "type": "Feature", "properties": { "id": "adr_voie_lieu.adrfontaineornem_latest.171", "nom": "Fontaine des Géants", "adresse": "1 Allée Buster Keaton, Villeurbanne", "commune": "Villeurbanne", "insee": "69266", "address": { "postalCode": "69100", "streetAddress": "1 Allée Buster Keaton", "addressCountry": "FR", "addressLocality": "Villeurbanne" }, "source": "Open Street Map", "gid": 171 }, "geometry": { "type": "Point", "coordinates": [ 45.7747, 4.8622 ] } },
{ "type": "Feature", "properties": { "id": "adr_voie_lieu.adrfontaineornem_latest.172", "nom": null, "adresse": "Esplanade Miriam Makeba, Villeurbanne", "commune": "Villeurbanne", "insee": "69266", "address": { "postalCode": "69100", "streetAddress": "Esplanade Miriam Makeba", "addressCountry": "FR", "addressLocality": "Villeurbanne" }, "source": "Open Street Map", "gid": 172 }, "geometry": { "type": "Point", "coordinates": [ 45.7606, 4.9197 ] } },
{ "type": "Feature", "properties": { "id": "adr_voie_lieu.adrfontaineornem_latest.173", "nom": null, "adresse": "Place du 11 Novembre 1918, Lyon 8e Arrondissement", "commune": "Lyon 8e Arrondissement", "insee": "69388", "address": { "postalCode": "69008", "streetAddress": "Place du 11 Novembre 1918", "addressCountry": "FR", "addressLocality": "Lyon 8e Arrondissement" }, "source": "Open Street Map", "gid": 173 }, "geometry": { "type": "Point", "coordinates": [ 45.7368, 4.8688 ] } },
{ "type": "Feature", "properties": { "id": "adr_voie_lieu.adrfontaineornem_latest.174", "nom": null, "adresse": "Place Louis Pradel, Lyon 1er Arrondissement", "commune": "Lyon 1er Arrondissement", "insee": "69381", "address": { "postalCode": "69001", "streetAddress": "Place Louis Pradel", "addressCountry": "FR", "addressLocality": "Lyon 1er Arrondissement" }, "source": "Open Street Map", "gid": 174 }, "geometry": { "type": "Point", "coordinates": [ 45.7684, 4.8367 ] } },
{ "type": "Feature", "properties": { "id": "adr_voie_lieu.adrfontaineornem_latest.175", "nom": null, "adresse": "Place Antoine Vollon, Lyon 2e Arrondissement", "commune": "Lyon 2e Arrondissement", "insee": "69382", "address": { "postalCode": "69002", "streetAddress": "Place Antoine Vollon", "addressCountry": "FR", "addressLocality": "Lyon 2e Arrondissement" }, "source": "Open Street Map", "gid": 175 }, "geometry": { "type": "Point", "coordinates": [ 45.7557, 4.8275 ] } },
{ "type": "Feature", "properties": { "id": "adr_voie_lieu.adrfontaineornem_latest.176", "nom": null, "adresse": "Esplanade Tase, Vaulx-en-Velin", "commune": "Vaulx-en-Velin", "insee": "69256", "address": { "postalCode": "69120", "streetAddress": "Esplanade Tase", "addressCountry": "FR", "addressLocality": "Vaulx-en-Velin" }, "source": "Open Street Map", "gid": 176 }, "geometry": { "type": "Point", "coordinates": [ 45.7609, 4.9254 ] } },
{ "type": "Feature", "properties": { "id": "adr_voie_lieu.adrfontaineornem_latest.177", "nom": null, "adresse": "156 Avenue Jean Jaurès, Décines-Charpieu", "commune": "Décines-Charpieu", "insee": "69275", "address": { "postalCode": "69150", "streetAddress": "156 Avenue Jean Jaurès", "addressCountry": "FR", "addressLocality": "Décines-Charpieu" }, "source": "Open Street Map", "gid": 177 }, "geometry": { "type": "Point", "coordinates": [ 45.7695, 4.9502 ] } },
{ "type": "Feature", "properties": { "id": "adr_voie_lieu.adrfontaineornem_latest.178", "nom": null, "adresse": "Place Paul Duquaire, Lyon 5e Arrondissement", "commune": "Lyon 5e Arrondissement", "insee": "69385", "address": { "postalCode": "69005", "streetAddress": "Place Paul Duquaire", "addressCountry": "FR", "addressLocality": "Lyon 5e Arrondissement" }, "source": "Open Street Map", "gid": 178 }, "geometry": { "type": "Point", "coordinates": [ 45.762, 4.8285 ] } },
{ "type": "Feature", "properties": { "id": "adr_voie_lieu.adrfontaineornem_latest.179", "nom": null, "adresse": "27 Rue Ludovic Arrachart, Lyon 8e Arrondissement", "commune": "Lyon 8e Arrondissement", "insee": "69388", "address": { "postalCode": "69008", "streetAddress": "27 Rue Ludovic Arrachart", "addressCountry": "FR", "addressLocality": "Lyon 8e Arrondissement" }, "source": "Open Street Map", "gid": 179 }, "geometry": { "type": "Point", "coordinates": [ 45.7298, 4.8656 ] } },
{ "type": "Feature", "properties": { "id": "adr_voie_lieu.adrfontaineornem_latest.180", "nom": null, "adresse": "3 Place Marcel Bertone, Lyon 4e Arrondissement", "commune": "Lyon 4e Arrondissement", "insee": "69384", "address": { "postalCode": "69004", "streetAddress": "3 Place Marcel Bertone", "addressCountry": "FR", "addressLocality": "Lyon 4e Arrondissement" }, "source": "Open Street Map", "gid": 180 }, "geometry": { "type": "Point", "coordinates": [ 45.7778, 4.8346 ] } },
{ "type": "Feature", "properties": { "id": "adr_voie_lieu.adrfontaineornem_latest.181", "nom": null, "adresse": "8 Place Henri Barbusse, Décines-Charpieu", "commune": "Décines-Charpieu", "insee": "69275", "address": { "postalCode": "69150", "streetAddress": "8 Place Henri Barbusse", "addressCountry": "FR", "addressLocality": "Décines-Charpieu" }, "source": "Open Street Map", "gid": 181 }, "geometry": { "type": "Point", "coordinates": [ 45.7632, 4.9653 ] } },
{ "type": "Feature", "properties": { "id": "adr_voie_lieu.adrfontaineornem_latest.182", "nom": null, "adresse": "Place Docteur Lazare Goujon, Villeurbanne", "commune": "Villeurbanne", "insee": "69266", "address": { "postalCode": "69100", "streetAddress": "Place Docteur Lazare Goujon", "addressCountry": "FR", "addressLocality": "Villeurbanne" }, "source": "Open Street Map", "gid": 182 }, "geometry": { "type": "Point", "coordinates": [ 45.766, 4.8794 ] } },
{ "type": "Feature", "properties": { "id": "adr_voie_lieu.adrfontaineornem_latest.183", "nom": null, "adresse": "45 Quai Clemenceau, Caluire-et-Cuire", "commune": "Caluire-et-Cuire", "insee": "69034", "address": { "postalCode": "69300", "streetAddress": "45 Quai Clemenceau", "addressCountry": "FR", "addressLocality": "Caluire-et-Cuire" }, "source": "Open Street Map", "gid": 183 }, "geometry": { "type": "Point", "coordinates": [ 45.7953, 4.8303 ] } },
{ "type": "Feature", "properties": { "id": "adr_voie_lieu.adrfontaineornem_latest.184", "nom": null, "adresse": "2ter Avenue Jules Guesde, Vénissieux", "commune": "Vénissieux", "insee": "69259", "address": { "postalCode": "69200", "streetAddress": "2ter Avenue Jules Guesde", "addressCountry": "FR", "addressLocality": "Vénissieux" }, "source": "Open Street Map", "gid": 184 }, "geometry": { "type": "Point", "coordinates": [ 45.7192, 4.8871 ] } },
{ "type": "Feature", "properties": { "id": "adr_voie_lieu.adrfontaineornem_latest.185", "nom": null, "adresse": "41 Rue de la Bourse, Lyon 2e Arrondissement", "commune": "Lyon 2e Arrondissement", "insee": "69382", "address": { "postalCode": "69002", "streetAddress": "41 Rue de la Bourse", "addressCountry": "FR", "addressLocality": "Lyon 2e Arrondissement" }, "source": "Open Street Map", "gid": 185 }, "geometry": { "type": "Point", "coordinates": [ 45.7644, 4.8367 ] } },
{ "type": "Feature", "properties": { "id": "adr_voie_lieu.adrfontaineornem_latest.186", "nom": "Fontaine des Jacobins", "adresse": "Place des Jacobins, Lyon 2e Arrondissement", "commune": "Lyon 2e Arrondissement", "insee": "69382", "address": { "postalCode": "69002", "streetAddress": "Place des Jacobins", "addressCountry": "FR", "addressLocality": "Lyon 2e Arrondissement" }, "source": "Open Street Map", "gid": 186 }, "geometry": { "type": "Point", "coordinates": [ 45.7605, 4.8335 ] } },
{ "type": "Feature", "properties": { "id": "adr_voie_lieu.adrfontaineornem_latest.187", "nom": null, "adresse": "Place des Passementiers, Villeurbanne", "commune": "Villeurbanne", "insee": "69266", "address": { "postalCode": "69100", "streetAddress": "Place des Passementiers", "addressCountry": "FR", "addressLocality": "Villeurbanne" }, "source": "Open Street Map", "gid": 187 }, "geometry": { "type": "Point", "coordinates": [ 45.7697, 4.866 ] } },
{ "type": "Feature", "properties": { "id": "adr_voie_lieu.adrfontaineornem_latest.188", "nom": null, "adresse": "29b Rue du Bourbonnais, Lyon 9e Arrondissement", "commune": "Lyon 9e Arrondissement", "insee": "69389", "address": { "postalCode": "69009", "streetAddress": "29b Rue du Bourbonnais", "addressCountry": "FR", "addressLocality": "Lyon 9e Arrondissement" }, "source": "Open Street Map", "gid": 188 }, "geometry": { "type": "Point", "coordinates": [ 45.7737, 4.803 ] } },
{ "type": "Feature", "properties": { "id": "adr_voie_lieu.adrfontaineornem_latest.189", "nom": null, "adresse": "Rue Puits Gaillot, Lyon 1er Arrondissement", "commune": "Lyon 1er Arrondissement", "insee": "69381", "address": { "postalCode": "69001", "streetAddress": "Rue Puits Gaillot", "addressCountry": "FR", "addressLocality": "Lyon 1er Arrondissement" }, "source": "Open Street Map", "gid": 189 }, "geometry": { "type": "Point", "coordinates": [ 45.7677, 4.8352 ] } },
{ "type": "Feature", "properties": { "id": "adr_voie_lieu.adrfontaineornem_latest.190", "nom": null, "adresse": "Place Docteur Lazare Goujon, Villeurbanne", "commune": "Villeurbanne", "insee": "69266", "address": { "postalCode": "69100", "streetAddress": "Place Docteur Lazare Goujon", "addressCountry": "FR", "addressLocality": "Villeurbanne" }, "source": "Open Street Map", "gid": 190 }, "geometry": { "type": "Point", "coordinates": [ 45.7661, 4.8799 ] } },
{ "type": "Feature", "properties": { "id": "adr_voie_lieu.adrfontaineornem_latest.191", "nom": null, "adresse": "Place Paul Duquaire, Lyon 5e Arrondissement", "commune": "Lyon 5e Arrondissement", "insee": "69385", "address": { "postalCode": "69005", "streetAddress": "Place Paul Duquaire", "addressCountry": "FR", "addressLocality": "Lyon 5e Arrondissement" }, "source": "Open Street Map", "gid": 191 }, "geometry": { "type": "Point", "coordinates": [ 45.7616, 4.8283 ] } },
{ "type": "Feature", "properties": { "id": "adr_voie_lieu.adrfontaineornem_latest.192", "nom": null, "adresse": "Avenue de Gadagne, Saint-Genis-Laval", "commune": "Saint-Genis-Laval", "insee": "69204", "address": { "postalCode": "69230", "streetAddress": "Avenue de Gadagne", "addressCountry": "FR", "addressLocality": "Saint-Genis-Laval" }, "source": "Open Street Map", "gid": 192 }, "geometry": { "type": "Point", "coordinates": [ 45.6918, 4.7865 ] } },
{ "type": "Feature", "properties": { "id": "adr_voie_lieu.adrfontaineornem_latest.193", "nom": "Fontaine des Dauphins", "adresse": "16 Grande Rue, Saint-Priest", "commune": "Saint-Priest", "insee": "69290", "address": { "postalCode": "69800", "streetAddress": "16 Grande Rue", "addressCountry": "FR", "addressLocality": "Saint-Priest" }, "source": "Open Street Map", "gid": 193 }, "geometry": { "type": "Point", "coordinates": [ 45.6992, 4.9428 ] } },
{ "type": "Feature", "properties": { "id": "adr_voie_lieu.adrfontaineornem_latest.194", "nom": null, "adresse": "126 Rue Commandant Charcot, Lyon 5e Arrondissement", "commune": "Lyon 5e Arrondissement", "insee": "69385", "address": { "postalCode": "69005", "streetAddress": "126 Rue Commandant Charcot", "addressCountry": "FR", "addressLocality": "Lyon 5e Arrondissement" }, "source": "Open Street Map", "gid": 194 }, "geometry": { "type": "Point", "coordinates": [ 45.7482, 4.7913 ] } },
{ "type": "Feature", "properties": { "id": "adr_voie_lieu.adrfontaineornem_latest.195", "nom": null, "adresse": "93 Quai Charles de Gaulle, Lyon 6e Arrondissement", "commune": "Lyon 6e Arrondissement", "insee": "69386", "address": { "postalCode": "69006", "streetAddress": "93 Quai Charles de Gaulle", "addressCountry": "FR", "addressLocality": "Lyon 6e Arrondissement" }, "source": "Open Street Map", "gid": 195 }, "geometry": { "type": "Point", "coordinates": [ 45.7827, 4.8521 ] } }
]
}
